stop_id,stop_code,stop_name,stop_lat,stop_lon,location_type,parent_station,zone_id
ESTACION_7109,7109,CAD,4.6231563492365577,-74.084448688980061,1,,0
ESTACION_6103,6103,CAN,4.6470502755254275,-74.099203837257932,1,,0
ESTACION_7010,7010,Bosa,4.5968326938948252,-74.181267128444347,1,,0
ESTACION_4108,4108,Polo,4.67072576047362,-74.064842985045317,1,,0
ESTACION_7009,7009,SENA,4.5973236914682207,-74.110770897740778,1,,0
ESTACION_9105,9105,Fucha,4.5828832586767234,-74.099563239435426,1,,0
ESTACION_9118,9118,Marly,4.6377299287526714,-74.066777596878012,1,,0
ESTACION_9103,9103,Olaya,4.5788315839293032,-74.1075534525781,1,,0
ESTACION_2201,2201,Prado,4.7145073972999061,-74.052613592371955,1,,0
ESTACION_9116,9116,AV. 39,4.62706245017498,-74.068692770485114,1,,0
ESTACION_4103,4103,Ferias,4.6909319278513655,-74.084661148047658,1,,0
ESTACION_9121,9121,Flores,4.6548180498490543,-74.063092808152931,1,,0
ESTACION_8001,8001,Parque,4.5684427897443314,-74.135544145902529,1,,0
ESTACION_2302,2302,Virrey,4.6763868234399126,-74.058958646090346,1,,0
ESTACION_2200,2200,Alcalá,4.7214744367232022,-74.05144363697265,1,,0
ESTACION_4102,4102,Boyacá,4.69393504626405,-74.087195616557452,1,,0
ESTACION_9107,9107,Hortúa,4.5907578220236367,-74.090327650872538,1,,0
ESTACION_2304,2304,Héroes,4.668671387738379,-74.060240793177343,1,,0
ESTACION_6001,6001,Modelia,4.675150384405895,-74.117232124548067,1,,0
ESTACION_9001,9001,Molinos,4.5574204709990767,-74.121797246936552,1,,0
ESTACION_9106,9106,Nariño,4.586393557344369,-74.093844840730341,1,,0
ESTACION_7001,7001,Perdomo,4.59578450631084,-74.164964617096672,1,,0
ESTACION_5105,5105,Pradera,4.6285040322661946,-74.118613706475969,1,,0
ESTACION_9101,9101,Quiroga,4.5768027901872514,-74.114385203259886,1,,0
ESTACION_9003,9003,Socorro,4.5646692006455325,-74.125581992927039,1,,0
ESTACION_7004,7004,Venecia,4.5955542601059447,-74.14284644276141,1,,0
ESTACION_5100,5100,Banderas,4.6313262187542765,-74.1456634204115,1,,0
ESTACION_9111,9111,Calle 19,4.6078686007776311,-74.07688220987518,1,,0
ESTACION_9113,9113,Calle 22,4.6117908329609154,-74.0746314168677,1,,0
ESTACION_9114,9114,Calle 26,4.616803873779741,-74.0721583221228,1,,0
ESTACION_9115,9115,Calle 34,4.6216270540195286,-74.0697469206331,1,,0
ESTACION_9117,9117,Calle 45,4.6316930646493688,-74.067845158642911,1,,0
ESTACION_9119,9119,Calle 57,4.6432721416474312,-74.065811963114015,1,,0
ESTACION_9120,9120,Calle 63,4.6477054974866023,-74.064995632408326,1,,0
ESTACION_9122,9122,Calle 72,4.6584441609252423,-74.062062085744017,1,,0
ESTACION_9123,9123,Calle 76,4.6632296286859436,-74.061249343980322,1,,0
ESTACION_2303,2303,Calle 85,4.6715319368690729,-74.059800893325942,1,,0
ESTACION_9002,9002,Consuelo,4.5600931329985235,-74.123838633968049,1,,0
ESTACION_9108,9108,Hospital,4.595198084340236,-74.086278029603235,1,,0
ESTACION_7002,7002,Madelena,4.596280495124736,-74.156991383997379,1,,0
ESTACION_5101,5101,Mandalay,4.6308667536161439,-74.1414085178535,1,,0
ESTACION_5103,5103,Marsella,4.6296837892811951,-74.130386601506046,1,,0
ESTACION_2103,2103,Mazurén,4.73538842203494,-74.049058504134365,1,,0
ESTACION_4001,4001,Quirigua,4.7067448106002212,-74.1088424874019,1,,0
ESTACION_9104,9104,Restrepo,4.5820086327010481,-74.1013848284198,1,,0
ESTACION_3013,3013,Rionegro,4.68038380994414,-74.064814447377017,1,,0
ESTACION_2502,2502,Terminal,4.7690153118857266,-74.043498530013,1,,0
ESTACION_2101,2101,Toberín,4.7471252954714309,-74.047160478716577,1,,0
ESTACION_7103,7103,AV. Chile,4.6664016549512723,-74.074660918745977,1,,0
ESTACION_6100,6100,AV. Rojas,4.6622214432462474,-74.1089412163852,1,,0
ESTACION_7005,7005,Alquería,4.5942648438466538,-74.134276224559144,1,,0
ESTACION_2300,2300,Calle 100,4.6845005042363086,-74.057665769714234,1,,0
ESTACION_2205,2205,Calle 106,4.6940901317149661,-74.05601210982465,1,,0
ESTACION_2202,2202,Calle 127,4.7045017825327733,-74.054290752367436,1,,0
ESTACION_2105,2105,Calle 142,4.7268238022227553,-74.050545673934863,1,,0
ESTACION_2104,2104,Calle 146,4.7313812860957052,-74.049739733347749,1,,0
ESTACION_2102,2102,Calle 161,4.7421348582919416,-74.047948962588464,1,,0
ESTACION_2001,2001,Calle 187,4.7633559068648887,-74.044482816721285,1,,0
ESTACION_7112,7112,Comuneros,4.6041988397666973,-74.099917772474711,1,,0
ESTACION_3004,3004,Gratamira,4.7276845519755231,-74.074693102450382,1,,0
ESTACION_14005,14005,Las Aguas,4.6024597980860538,-74.068400399769516,1,,0
ESTACION_10004,10004,Policarpa,4.5864652406770556,-74.086803056123159,1,,0
ESTACION_4000,4000,Portal 80,4.7096654450348607,-74.110685719666577,1,,0
ESTACION_10008,10008,San Diego,4.6112671252430584,-74.071256949281093,1,,0
ESTACION_7503,7503,San Mateo,4.5862440459219238,-74.2048331741351,1,,0
ESTACION_7003,7003,Sevillana,4.595111944600407,-74.1475020964448,1,,0
ESTACION_4104,4104,Avenida 68,4.6857796590708878,-74.080580373346265,1,,0
ESTACION_8002,8002,Biblioteca,4.5703670626453405,-74.130455758896943,1,,0
ESTACION_12001,12001,Carrera 43,4.6228702763171148,-74.101540400103815,1,,0
ESTACION_4106,4106,Carrera 47,4.6779630789003255,-74.073652872573689,1,,0
ESTACION_4105,4105,Carrera 53,4.6817655856738387,-74.077421033865974,1,,0
ESTACION_4002,4002,Carrera 90,4.704669206037873,-74.1046781101301,1,,0
ESTACION_10007,10007,Las Nieves,4.6058410745602183,-74.074480713255284,1,,0
ESTACION_7505,7505,León XIII,4.5921995073944366,-74.19315680176642,1,,0
ESTACION_6002,6002,Normandía,4.6688158584079362,-74.113169878157777,1,,0
ESTACION_7110,7110,Paloquemao,4.6167525708161756,-74.08971206077544,1,,0
ESTACION_3003,3003,21 ángeles,4.7355704168478825,-74.081146751834254,1,,0
ESTACION_12002,12002,CDS  Cra 32,4.6160951273501327,-74.093961745196737,1,,0
ESTACION_10001,10001,Country Sur,4.571074260536097,-74.098759340905929,1,,0
ESTACION_3001,3001,La Campiña,4.7426259816963645,-74.091219748474643,1,,0
ESTACION_7506,7506,La Despensa,4.59458033119623,-74.18821232416353,1,,0
ESTACION_2204,2204,Pepe Sierra,4.6979938584982754,-74.055346985780758,1,,0
ESTACION_3000,3000,Portal Suba,4.7469927324058849,-74.094252542221227,1,,0
ESTACION_90004,90004,Portal Usme,4.5318440998056229,-74.119447940600068,1,,0
ESTACION_3010,3010,Puentelargo,4.6935310412950324,-74.067196034300821,1,,0
ESTACION_3014,3014,San Martín,4.676406715110855,-74.067175079223318,1,,0
ESTACION_7107,7107,U. Nacional,4.637090954814612,-74.079320101814574,1,,0
ESTACION_10002,10002,AV. 1° Mayo,4.5766694230375862,-74.093898685910645,1,,0
ESTACION_4003,4003,Avenida Cali,4.70240676796969,-74.100252040386309,1,,0
ESTACION_10005,10005,Bicentenario,4.5931389996306482,-74.082471425690258,1,,0
ESTACION_9100,9100,Calle 40 Sur,4.5757961196654495,-74.120058902063363,1,,0
ESTACION_14001,14001,De La Sabana,4.60532908945432,-74.081837758246962,1,,0
ESTACION_6104,6104,Gobernación,4.6425056540424272,-74.09634256714142,1,,0
ESTACION_5001,5001,Patio Bonito,4.6332236800401212,-74.164722329074976,1,,0
ESTACION_8000,8000,Portal Tunal,4.57091172442298,-74.139574904262318,1,,0
ESTACION_7113,7113,Santa Isabel,4.60158818453898,-74.102755490141121,1,,0
ESTACION_9004,9004,Santa Lucía,4.570915188323168,-74.124785344996354,1,,0
ESTACION_3012,3012,Suba - CL 95,4.6846887004456015,-74.063260448397429,1,,0
ESTACION_7108,7108,AV. El Dorado,4.6301834442410286,-74.079921041360663,1,,0
ESTACION_7101,7101,La Castellana,4.6754704614336626,-74.064712051045618,1,,0
ESTACION_14004,14004,Museo del Oro,4.6011822864868819,-74.0729284449539,1,,0
ESTACION_12000,12000,Puente Aranda,4.6257791712495981,-74.1048075287873,1,,0
ESTACION_10006,10006,San Victorino,4.60068211259369,-74.077605404772868,1,,0
ESTACION_3002,3002,Suba - TV. 91,4.7389347722640549,-74.087013620572549,1,,0
ESTACION_6111,6111,Universidades,4.60488261504428,-74.0671115606691,1,,0
ESTACION_6109,6109,Centro Memoria,4.6212116112564994,-74.076878037647887,1,,0
ESTACION_4101,4101,Minuto de Dios,4.6966532037767,-74.091599978462838,1,,0
ESTACION_7105,7105,Movistar Arena,4.6498366119768564,-74.078388507573663,1,,0
ESTACION_10009,10009,Museo Nacional,4.6153770507722021,-74.069127307405,1,,0
ESTACION_7102,7102,NQS - Calle 75,4.6699867078817885,-74.0715950324681,1,,0
ESTACION_7000,7000,Portal del Sur,4.5973510301910236,-74.169328800510556,1,,0
ESTACION_6105,6105,Quinta Paredes,4.6374541088797532,-74.093077669981241,1,,0
ESTACION_6106,6106,Recinto Ferial,4.6343468176773088,-74.089831015654539,1,,0
ESTACION_7111,7111,Ricaurte (NQS),4.6115099821350052,-74.094044516746436,1,,0
ESTACION_9109,9109,Tercer Milenio,4.5981369571925974,-74.083863141050756,1,,0
ESTACION_5005,5005,Transversal 86,4.6341594213074933,-74.1519571919689,1,,0
ESTACION_4107,4107,Escuela Militar,4.6755458139939883,-74.0698531351871,1,,0
ESTACION_7007,7007,NQS - CL 38A S.,4.5937921350281385,-74.123778155620954,1,,0
ESTACION_6000,6000,Portal Eldorado,4.682083474874684,-74.121692815588275,1,,0
ESTACION_7104,7104,Simón Bolívar,4.6571673583617255,-74.077729391285672,1,,0
ESTACION_3005,3005,Suba  Av Boyaca,4.7214078743642869,-74.07477893695058,1,,0
ESTACION_3011,3011,Suba  Calle 100,4.6905501022484994,-74.065716574966714,1,,0
ESTACION_12007,12007,Zona Industrial,4.62022258223004,-74.098615592535708,1,,0
ESTACION_5107,5107,Distrito Grafiti,4.6278918778628526,-74.11167397833718,1,,0
ESTACION_3007,3007,Humedal Córdoba,4.7066527776778715,-74.0712291415669,1,,0
ESTACION_3006,3006,Niza - Calle 127,4.7119735701008469,-74.0723226015792,1,,0
ESTACION_5000,5000,Portal Américas,4.6295689279788919,-74.17322124434456,1,,0
ESTACION_2000,2000,Portal del Norte,4.7554763188250728,-74.045886325604869,1,,0
ESTACION_12003,12003,Ricaurte (CL 13),4.6129310942427741,-74.090418560678458,1,,0
ESTACION_5002,5002,Biblioteca Tintal,4.6379986250053449,-74.159387204269791,1,,0
ESTACION_7006,7006,General Santander,4.5935628063622262,-74.12960299169734,1,,0
ESTACION_7008,7008,NQS Calle 30 Sur ,4.5947394493934555,-74.118119844022274,1,,0
ESTACION_7200,7200,Tygua - San José,4.5997823641154794,-74.08877710798356,1,,0
ESTACION_90005,90005,Av. Suba Calle 116,4.6993631622321512,-74.0699069253554,1,,0
ESTACION_6108,6108,Concejo de Bogotá,4.6260101772899933,-74.080382062581563,1,,0
ESTACION_6101,6101,El Tiempo - Maloka,4.657010838950371,-74.1056589643267,1,,0
ESTACION_10000,10000,Portal 20 de Julio,4.5656473264963369,-74.097125779810028,1,,0
ESTACION_6102,6102,Salitre - El Greco,4.650849583251766,-74.101679843084511,1,,0
ESTACION_12004,12004,San Facon - KR. 22,4.609636770944225,-74.08669806966445,1,,0
ESTACION_4100,4100,Granja - Carrera 77,4.6987088606082157,-74.09537952945233,1,,0
ESTACION_7201,7201,Guatoque - Veraguas,4.6040365641751677,-74.094782975560051,1,,0
ESTACION_14003,14003,AV. Jiménez (CL 13),4.60296469843871,-74.079034262594973,1,,0
ESTACION_10003,10003,Ciudad Jardín - UAN,4.5816346069172589,-74.090215576128742,1,,0
ESTACION_6107,6107,Ciudad Universitaria,4.6308898269713783,-74.083579260102354,1,,0
ESTACION_10010,10010,Estación San Bernardo,4.5902655581911933,-74.084196526995868,1,,0
ESTACION_7504,7504,Terreros Hospital C.V.,4.58895860366713,-74.199437082480429,1,,0
ESTACION_5102,5102,Av Américas -Av. Boyacá,4.6301070549212042,-74.134196911127731,1,,0
ESTACION_9110,9110,AV. Jiménez (AV. Caracas),4.6027923817698992,-74.080499881310274,1,,0
ESTACION_7106,7106,Campín - Universidad Antonio Nariño,4.6459269353160018,-74.078684392583781,1,,0
4445,BD-382A,CAC ,4.6927977848506277,-74.135988835009925,0,,0
6740,PA12766,2-7_4,4.7525021734121946,-74.060327739635241,0,,0
3993,072A12,IED Enrique Olaya Herrera-AK 10 - CL 34 Sur,4.5668209956447132,-74.102871675868016,0,,0
9076,080B08,Villa de los Comuneros-AV. Tintal - CL 51 Sur,4.633961387246881,-74.182042566606242,0,,0
8289,090B10,U. Distrital-AV. V/cio - AK 51,4.5791278815997165,-74.156591827315026,0,,0
9083,138B04,Br. El Cortijo-AC 80 - KR 114,4.7229888495523431,-74.122385503664049,0,,0
9084,159B04,Villas de Granada-AC 80 - KR 112 Bis,4.7192498374769531,-74.119555612143856,0,,0
4536,219A08,Ciudadela El Recreo-CL 73 Sur - KR 99 A,4.6334550924525955,-74.204874021840112,0,,0
4547,243A08,Ciudadela El Recreo-CL 63 Sur - KR 99A,4.6361196101018844,-74.199766751167729,0,,0
7284,248A04,Ciudad Bachué I Etapa-KR 95G - CL 88,4.7150833484671022,-74.1054563774065,0,,0
9074,274A09,Br. Las Margaritas-CL 63 Sur - KR 93C,4.6305432639462261,-74.19674975201913,0,,0
9075,336A08,IED Los Periodistas-CL 42 Sur - TV 78H,4.6166361484552647,-74.15993159823519,0,,0
8785,346A08,Br. Gran Britalia-CL 46 Sur - KR 81C,4.6233455389476585,-74.170564070060749,0,,0
9082,396B04,Puente de Guadua-AC 80 - KR 119,4.7259349078835307,-74.124878019277162,0,,0
9007,417A07,Pq. Villa Alsacia-TV 74 - CL 11B,4.6450527475474956,-74.135229378692543,0,,0
9008,418A07,Pq. De Castilla-TV 79 - CL 11B,4.6464875842237143,-74.136778782539736,0,,0
4539,470A08,Ciudadela El Recreo-KR 102 - CL 72 Sur,4.6358968575840782,-74.2052848541188,0,,0
4546,600A08,Ciudadela El Recreo II-KR 102 - CL 69 Sur,4.6370687140600406,-74.2027634184183,0,,0
6668,634A08,Br. Gran Britalia-KR 80H - CL 51 Sur,4.6188351562240042,-74.172864449390659,0,,0
4849,BD-033A,Calle 82-AK 7 - CL 82,4.6623536174252855,-74.049321002790279,0,,0
8854,107A13,Br. Villa Diana-AV. Circunvalar - CL 86 Sur,4.5015088880089023,-74.086236591442187,0,,0
8856,126A13,Pq San Cayetano-AV. Circunvalar - CL 73A Sur,4.5175991732441307,-74.0905176956121,0,,0
7827,137A09,Dg 73H-KR 79D - DG 73H Sur,4.6082327019138631,-74.2011631070502,0,,0
9219,178A02,Br. La Floresta-Auto Norte - AC 235,4.80983918945792,-74.037150891812061,0,,0
7318,377D05,377D05-GM,4.6980605325516231,-74.141100765393716,0,,0
8573,440A01,Br. Tibabita II-KR 8C - CL 187A,4.7634408854517085,-74.030027403734039,0,,0
7979,500A05,Br. Sabana del Dorado-KR 117 - CL 63D,4.7100929760415626,-74.141976000038284,0,,0
7935,614A09,Terminal del Sur-Terminal Sur,4.5975754098434187,-74.175817123600652,0,,0
8038,650A09,Pq. Laureles Alborada-AV. C. de Cali - KR 81F,4.6124630352554385,-74.2012646351295,0,,0
4274,BD-016A,Br. Chapinero Norte-AK 7 – CL 66,4.6504772837885442,-74.058569335985752,0,,0
4281,BD-002A,Br. Samper-AK 7 – CL 33,4.62051628344373,-74.067527836015344,0,,0
4242,BD-001A,Br. La Merced-AK 7 – CL 34,4.6221541161395576,-74.066682502349892,0,,0
4280,BD-004A,CAR Cundinamarca-AK 7 – CL 36,4.6243147835510809,-74.066222335974459,0,,0
4243,BD-003A,Parque Nacional-AK 7 – CL 37,4.6249794496862373,-74.065888835861443,0,,0
8013,BD-005B,U. Javeriana-AK 7 - CL 40,4.6284525035628583,-74.065056206167114,0,,0
4244,BD-005A,Universidad Javeriana-AK 7 – CL 40,4.6282160840835909,-74.065145555335008,0,,0
4279,BD-006A,Universidad Distrital-AK 7 – CL 40,4.6280409598185148,-74.065345317971733,0,,0
8016,BD-006B,Universidad Distrital-AK 7 - CL 40,4.6284724499107748,-74.065234669226655,0,,0
4245,BD-007A,Calle 45-AK 7 – AC 45,4.632089283740541,-74.063936002865645,0,,0
4278,BD-008A,Calle 45-AK 7 – AC 45,4.6320976169818247,-74.064099003005254,0,,0
4246,BD-009A,Hospital Militar-AK 7 – CL 50,4.6370467835081284,-74.063397502160925,0,,0
4277,BD-010A,Universidad Santo Tomás-AK 7 – CL 51,4.6379231168044877,-74.063366668992785,0,,0
4276,BD-012A,SENA – Dirección General-AK 7 – CL 55,4.6418401169119292,-74.062406669264519,0,,0
8017,BD-012B,SENA - Dirección General-AK 7 - CL 56,4.6427376728380887,-74.062139932450222,0,,0
4247,BD-011,K7 - CL57 ,4.6430127840196933,-74.061883002680261,0,,0
4275,BD-014A,Br. Chapinero Central-AK 7 – CL 60,4.6461246170145385,-74.060947002617368,0,,0
4248,BD-013A,U. La Salle-AK 7 – CL 61,4.6465466169868836,-74.060398336160091,0,,0
8018,BD-014B,Chapinero Central-AK 7 - CL 61,4.6463807836899518,-74.06070216928461,0,,0
4249,BD-015A,Calle 67-AK 7 – CL 66,4.6503526167303439,-74.058460503080127,0,,0
8019,BD-016B,Chapinero Norte-AK 7 - CL 66,4.6505273905600015,-74.058509530028743,0,,0
8020,BD-018A,Avenida Chile-AK 7 – CL 71,4.6530572838560325,-74.056454002684788,0,,0
4273,BD-018B,Avenida Chile-AK 7 - CL 71,4.653684121295214,-74.056061104088954,0,,0
4251,BD-019A,Br. Bellavista-AK 7 – CL 73,4.656534159918972,-74.054363079621325,0,,0
4394,BD-029B,Br. Porciúncula-AK 7 – CL 75,4.6573182839637823,-74.054036669388154,0,,0
8021,BD-029A,Br. Porciúncula-AK 7 – CL 75,4.6570693066180642,-74.054351790101038,0,,0
4620,BD-031A,Los Rosales-AK 7 - CL 78,4.6601141173663914,-74.051427336090129,0,,0
4650,BD-030A,El Nogal-AK 7 - CL 79,4.6605459507111808,-74.051208336090724,0,,0
4393,BD-032A,Calle 82-AK 7 - CL 81,4.662821117431931,-74.04905066946344,0,,0
4392,BD-034A,La Cabrera-AK 7 - CL 86,4.666823284198844,-74.046090669500089,0,,0
4484,BD-035A,El Refugio-AK 7 - CL 87,4.6658274508382283,-74.046397669495789,0,,0
4391,BD-036A,El Chicó-AK 7 - CL 90,4.66926428425997,-74.044957169524025,0,,0
4485,BD-037A,Chicó Oriental-AK 7 - CL 92,4.67069911763207,-74.044069502865824,0,,0
4390,BD-038A,Parque La Gran Vía-AK 7 - CL 94,4.6750554510722147,-74.041072169586315,0,,0
4486,BD-039A,Calle 94-AK 7 - CL 94,4.674555951062894,-74.041305502911982,0,,0
4635,BD-065A,Clínica El Bosque-AC 134 - AK 7,4.7119221186582347,-74.0298325030965,0,,0
4405,BD-020A,K11 - CL75 ,4.6604122840434439,-74.05657683601639,0,,0
4402,BD-044A,K11 - CL93 ,4.6747021177266141,-74.047473669482031,0,,0
4401,BD-043A,Chicó Norte II-AK 11 - CL 95,4.6794789511794583,-74.045050169517921,0,,0
4260,BD-028A,K13 - CL37 ,4.6256356168394079,-74.067500668748252,0,,0
4257,BD-025A,K13 - CL52 ,4.639449450143311,-74.065217835942647,0,,0
4256,BD-024A,Alcaldía Local de Chapinero-AK 13 - CL 55,4.6426639498736213,-74.064696835792176,0,,0
4255,BD-023A,K13 - CL60 ,4.64727961669782,-74.063891669283549,0,,0
4254,BD-022A,Chapinero Norte-AK 13 - CL 66,4.652955450126389,-74.062999336293061,0,,0
4487,BD-041A,Escuela de Caballería-AK 7 - CL 100,4.6804104512071527,-74.037680669639357,0,,0
4652,BD-048A,Teatro Patria-AK 7 - CL 106,4.6844537846363048,-74.036137336322454,0,,0
4621,BD-052A,Cantón Norte-AK 7 - CL 106,4.68568410159813,-74.035284087300127,0,,0
4623,BD-053A,SANTA ANA-AK 7 - CL 110,4.6889571180860736,-74.034565669689044,0,,0
4646,BD-054A,Santa Ana Occidental-AK 7 - CL 110,4.6895067847640108,-74.034848003015384,0,,0
8022,BD-056A,Cl 116-AK 7 - CL 116,4.6925828557766414,-74.03375814782963,0,,0
4626,BD-055A,Hacienda Santa Bárbara-AK 7 - CL 116,4.693363784859276,-74.033133669706729,0,,0
4644,BD-056B,Calle 116-AK 7 - CL 116,4.6927306181774426,-74.033658169700985,0,,0
8023,BD-058A,Fundación Santa Fe-AK 7 - CL 118,4.6952147658317971,-74.032591622949127,0,,0
4629,BD-059A,San Gabriel Norte-AK 7 - CL 124,4.7000872850228621,-74.0286788364481,0,,0
4633,BD-063A,Ginebra-AK 7 - CL 130B,4.7089177781816325,-74.028482751636943,0,,0
8014,BD-017A,Av. Chile-AK 7 – CL 70A,4.6539225565915094,-74.055733825479749,0,,0
4250,BD-017B,Av. Chile-AK 7 – CL 70A,4.6538032853725477,-74.055756843765778,0,,0
91936,325A13,Br. Las Cruces-AC 1 - KR 7,4.5868508943741642,-74.082166033775763,0,,0
91345,005A13,Instituto Nacional de Cancerología-AC 1 - KR 9,4.5887763014944518,-74.084027757461257,0,,0
96468,517A13,Instituto Nacional de Cancerología-AC 1 - KR 9,4.5889602945877721,-74.084558890043809,0,,0
94342,861A00,Br. San Bernardo-AC 1- KR 11,4.5899192376332216,-74.0857580417581,0,,0
92590,004A01,Br. Barrancas Perlas del Norte-AC 153 - 7F,4.7293947693064382,-74.028117020129343,0,,0
92024,416A13,Br. Belén-AC 6 - KR 0,4.5899008792445617,-74.072639491185754,0,,0
92020,412A13,Br. Santa Bárbara-AC 6 - KR 5,4.5900887612050081,-74.07790140549956,0,,0
92334,576A13,Br. Santa Bárbara-AC 6 - KR 7,4.59091623745736,-74.0798990419979,0,,0
92333,575A13,Br. Santa Bárbara-AC 6 - KR 7,4.5910882374570008,-74.079887041994965,0,,0
94623,717A00,IED Antonio José Uribe-AC 6 - KR 9,4.5925208038824952,-74.0813697528007,0,,0
87820,115A11,Br. San Antonio-AC1 - KR 18,4.593041291552165,-74.093015670084014,0,,0
6072,143A04,Br. Garcés Navas-AC 80 - KR 110,4.7168073519221547,-74.117793129726167,0,,0
96295,331A13,Br. Las Cruces-AK 7 - CL 2,4.5893456533786834,-74.080255744165811,0,,0
91903,025A02,Urb. Bosques de Gratamira-CL 138 - 74,4.73070094613968,-74.07170526394107,0,,0
96467,478A13,Br. Las Cruces-CL 2 - KR 8,4.5894640125862605,-74.081292840039339,0,,0
91961,354A13,Br. Belén-CL 7 - KR 0,4.5920441896800925,-74.0719518007915,0,,0
94318,452A00,Br. Egipto-CL 7 - KR 1,4.5925286787283106,-74.071958109289227,0,,0
91962,358A13,Superintendencia Financiera-CL 7 - KR 4,4.5938988585306628,-74.0748643911989,0,,0
4304,BD-050A,U. Pedagógica-AC 72 - KR 10,4.6568739508225807,-74.058555169078915,0,,0
4336,BD-051A,AK 11-CL 76 - AK 11,4.6618814510806406,-74.057478836001337,0,,0
4400,BD-042A,Calle 100-AK 11 - CL 100,4.6820001179132689,-74.043751502871459,0,,0
4403,BD-045A,K11 - CL86A ,4.6700901176155538,-74.050030336109458,0,,0
4259,BD-027A,K13 - CL43A ,4.6311529497845125,-74.066607336186237,0,,0
4628,BD-057A,Usaquén-AK 7 - CL 119B,4.6968594516173834,-74.031259336406777,0,,0
4631,BD-061A,Unicerros-AK 7 - CL 127B,4.705220118488735,-74.028462169782983,0,,0
91952,338A13,Br. Lourdes III-KR 2 - CL 3,4.5879808268551763,-74.07460656336859,0,,0
91848,283A13,Colegio La Giralda-KR 3 - AC 1,4.582762848220149,-74.07840362535751,0,,0
91847,281A13,Calle Primera-KR 3 - CL 1,4.582258678069894,-74.079409708208217,0,,0
94439,632A00,Br. Nueva Santa Fe de Bogotá-KR 4 - CL 6,4.5926912673120395,-74.07492779919464,0,,0
94319,455A00,Colegio Salesiano León XIII-KR 4 - CL 9,4.5949060943346,-74.073682397404852,0,,0
92014,405A13,Centro Educativo de Ingakunapa-KR 5 - CL 5,4.5919944292896666,-74.076346353014983,0,,0
93468,114A00,Colegio Salesiano León XIII-KR 5 - CL 8,4.5949577518198561,-74.074740509348345,0,,0
92986,289A07,JARDINES DE CASTILLA-KR 82A - 6B,4.6408572390043394,-74.152833037296844,0,,0
96466,473A13,Iglesia Las Cruces-KR 9 - CL 2,4.5903242435837539,-74.082699560046407,0,,0
8967,Alim1_SU,Portal Tunal,4.5705806484585212,-74.139516269287938,0,,0
91904,027A02,Br. Atenas - Hibernia-TV 75 - 138,4.7313332355962361,-74.073564443363807,0,,0
89309,087A12,Br. La Hortúa-AC 1 - AK 10,4.5896481389336792,-74.085667048364684,0,,0
89308,086A12,Br. La Hortúa-AC 1 - KR 12,4.5906424088908437,-74.087223628661974,0,,0
87796,114A11,Br. San Antonio-AC 1 - KR 19,4.5935605643526163,-74.094976818962166,0,,0
87794,113A11,La Fraguita-AC 1 - KR 22,4.5941102379043937,-74.096785041137821,0,,0
87795,113B11,Br. La Fraguita-AC 1 - KR 24,4.59457423511156,-74.0982136753758,0,,0
91937,326A13,Br. Las Cruces-AC 1 - KR 5A,4.585258662709208,-74.0805490176126,0,,0
79888,247A00,Br. Veracruz-AC 19 - KR 4,4.6037005357668077,-74.069481553322817,0,,0
93878,245D00,Br. Las Nieves-AC 19 - KR 4,4.6034299975297639,-74.0685675542885,0,,0
93934,247B00,Br. Veracruz-AC 19 - KR 4,4.6039318881768247,-74.069807232805886,0,,0
93877,245C00,Br. Las Nieves-AC 19 - KR 4,4.6039279026510274,-74.069274419809062,0,,0
93876,245B00,Br. Las Nieves-AC 19 - KR 5,4.6047641147771454,-74.070474917756428,0,,0
93935,247C00,Br. Veracruz-AC 19 - KR 5,4.6046946755319436,-74.07089050678789,0,,0
93936,247D00,Br. Veracruz-AC 19 - KR 5,4.6048716660949385,-74.071126102684659,0,,0
93875,245A00,Br. Las Nieves-AC 19 - KR 7,4.6049737134214661,-74.070792424814812,0,,0
93874,244B00,Pl. Las Nieves-AC 19 - KR 7,4.6056641263042737,-74.071915150696825,0,,0
81168,243B00,Br. Veracruz-AC 19 - KR 8,4.6064064365458757,-74.073486979523921,0,,0
93871,243A00,Br. Veracruz-AC 19 - KR 8,4.6058075811265722,-74.0726126247128,0,,0
93873,244A00,Pl. Las Nieves-AC 19 - KR 9,4.6061231253920747,-74.07263527086819,0,,0
93951,257A00,Pl. Paloquemao-AC 19 - Kr25,4.6152998650498613,-74.085077553208492,0,,0
94375,510A00,Telesféricos de Monserrate-AC 20 - AK 1,4.60314779226441,-74.0618355429845,0,,0
94373,508A00,Teleféricos de Monserrate-AC 20 - KR 1,4.6028859851000021,-74.061827550134367,0,,0
89611,040A08,Br. Jorge Gaitán Cortés-AC 3 - AK 36,4.6073172380272567,-74.106457040338654,0,,0
92438,033A07,Br. Comuneros-AC 3 - AK 36,4.6075517385118845,-74.1064167677133,0,,0
92439,034A07,Br. Tibaná-AC 3 - KR 38,4.6092944873368573,-74.108447753346354,0,,0
89612,041A08,Br. Jorge Gaitán Cortés-AC 3 - KR 38,4.6095970595884674,-74.109032054316486,0,,0
90779,551A08,Br. Primavera Occidental-AC 3 - KR 41,4.6113221383888172,-74.110180123960518,0,,0
92478,039A07,Br. Primavera Occidental-AC 3 - KR 41,4.6133002381282378,-74.112206039913374,0,,0
92475,036A07,Br. Colón-AC 3 - KR 56,4.6194760960275634,-74.119234515882923,0,,0
92476,037A07,Br. San Gabriel-AC 3 - KR 60,4.6211068439921492,-74.120938162717138,0,,0
89615,044A08,Br. Galán-AC 3 - KR 60,4.6212377060293095,-74.121525636605753,0,,0
93398,075A00,Br. Sucre-AC 45 - KR 8,4.6316642365850962,-74.065370041556577,0,,0
94403,554A00,Clínica Santo Tomás-AC 53 - KR 3,4.638734158433925,-74.060992773932142,0,,0
94404,555A00,Clínica Santo Tomás-AC 53 - KR 4,4.6389031924843769,-74.061074936902671,0,,0
93383,056A00,Avenida Alberto Lleras Camargo-AC 53 - KR 9,4.6398822885404334,-74.063905445249333,0,,0
93384,057A00,Comfenalco-AC 53 - KR 9,4.6396611182156864,-74.063859400917423,0,,0
93386,059A00,Br. Veraguas-AC 6 - AK 27,4.604503929783462,-74.09574970955353,0,,0
93286,008A00,Estación Comuneros-AC 6 - AK 30,4.6059832377675729,-74.096826040816552,0,,0
92436,031A07,Estación Comuneros-AC 6 - AK 30,4.6072899003871717,-74.099396717525252,0,,0
93341,043A00,Br. La Estanzuela-AC 6 - KR 15,4.5978402375451752,-74.085658041547717,0,,0
93340,042A00,Br. La Estanzuela-AC 6 - KR 19,4.6008382376292722,-74.0898790412689,0,,0
93388,061A00,Br. El Progreso-AC 6 - KR 19,4.6002562469108792,-74.08988831456783,0,,0
93389,062A00,Br. El Progreso-AC 6 - KR 22,4.6021644514744,-74.092570554509052,0,,0
94271,388A00,Br. La Pepita-AC 6 - KR 23,4.60275423768675,-74.092604041092912,0,,0
93385,058A00,Br. Ricaurte-AC 6 - KR 26,4.6043202377311605,-74.094783040950929,0,,0
92021,413A13,Hospital Centro Oriente Lourdes-AC 6 - KR 2A,4.5897698304103258,-74.074965592307308,0,,0
92022,414A13,Hospital Centro Oriente Lourdes-AC 6 - KR 2A,4.589926841630505,-74.074940335117688,0,,0
92698,115A07,Br. Pensilvania-AC 6 - KR 32,4.6087404738797035,-74.100245905181737,0,,0
92676,113A07,Br. Primavera Occidental-AC 6 - KR 38,4.6143501191213288,-74.105163114393264,0,,0
92674,111A07,San Andresito de la 38-AC 6 - KR 38,4.6132087007137805,-74.10406048754497,0,,0
93182,384A07,Br. Los Ejidos-AC 6 - KR 38,4.615171505137452,-74.104895418736632,0,,0
92675,112A07,Br. Primavera Occidental-AC 6 - KR 40,4.615687631645768,-74.105567882206472,0,,0
92673,110A07,Br. Primavera Occidental-AC 6 - KR 41,4.61752649694975,-74.10596562552054,0,,0
94440,633A00,Archivo Distrital-AC 6 - KR 5,4.590266442908594,-74.0779404500876,0,,0
92435,030A07,Br. San Francisco-AC 6 - TV 44,4.6209355961668308,-74.106441381689024,0,,0
92577,092A07,Br. San Francisco-AC 6 - TV 47,4.6230275101423786,-74.1067604279313,0,,0
92671,108A07,Br. San Francisco-AC 6 - TV 49,4.6255476366849324,-74.1071511496393,0,,0
93373,046A00,Kr 8-AC 63 - KR 8,4.64815393767528,-74.060428804825449,0,,0
92483,047A07,Br. El Rincón de los Ángeles-AC 8 - KR 73,4.6372437459543372,-74.139544008100458,0,,0
92484,048A07,Pq. Deportivo Castilla-AC 8 - KR 73,4.6374940927126893,-74.139324141561772,0,,0
92763,169A07,Br. Castilla-AC 8 - KR 78,4.6386813841147791,-74.142507556623769,0,,0
93040,335A07,Br. Valladolid-AC 8 - KR 84,4.6452111379410859,-74.150159145093951,0,,0
94082,294A00,Br. El Retiro-AC 82 - KR 9,4.6655517847889447,-74.0508578017762,0,,0
94350,871A00,Br. Chicó Norte-AC 94 - KR 9,4.6757082354444481,-74.0432200413863,0,,0
92277,526A13,Instituto Materno Infantil-AK 10 - AC 1,4.5887161045573608,-74.085072493341343,0,,0
90045,444A12,Hospital San Juan de Dios-AK 10 - AC 1,4.5888954606253227,-74.085317780020276,0,,0
92278,527A13,IED Antonio José Uribe-AK 10 - CL 2,4.5915459536409626,-74.083174552166383,0,,0
94497,813A00,Br. San Bernardino-AK 10 - CL 2,4.5916810721477272,-74.083537013749279,0,,0
94583,676A00,Estación Bicentenario-AK 10 - CL 4,4.5937892089628436,-74.08174661965522,0,,0
94520,784A00,Pq. Tercer Milenio-AK 10 - CL 7,4.5963233193357089,-74.080175620756918,0,,0
93394,068A00,Pq. Tercer Milenio-AK 10 - CL 7,4.59644306311232,-74.080406048481038,0,,0
94521,785A00,Br. Centro Administrativo-AK 10 - CL 9,4.5985330609074868,-74.078729902137582,0,,0
94472,790A00,Br. Santa Inés-AK 10 - CL 9,4.5986767202935548,-74.07909833245759,0,,0
94087,299A00,Br. Porciúncula-AK 15 - 72,4.6597783384853875,-74.061083818330118,0,,0
87503,011A11,Br. San Antonio-AK 21 - AC 1,4.5934267597690681,-74.096318470074237,0,,0
93288,010A00,IED Ricaurte-AK 27 - AC 6,4.60540011682259,-74.094696196983236,0,,0
93289,010B00,IED Ricaurte-AK 27 - CL 6,4.6059320049974488,-74.094309334466175,0,,0
89799,108A08,Avenida Fucha-AK 50 - CL 1,4.6079781070116539,-74.11814654875684,0,,0
89654,050A08,Br. La Camelia-AK 50 - CL 1,4.6083041149936026,-74.118248882043929,0,,0
92382,008A07,Br. La Primavera Norte-AK 50 - CL 3,4.616163305554382,-74.114014082338272,0,,0
92618,098B07,Br. La Igualdad-AK 68 - AC 3,4.622671855409596,-74.124949189298775,0,,0
92625,100A07,Avenida Calle 3-AK 68 - AC 3,4.6247794720883126,-74.123884299303711,0,,0
92617,098A07,Br. La Igualdad-AK 68 - AC 3,4.6220696561762633,-74.125160253401987,0,,0
92620,098D07,Br. La Igualdad-AK 68 - CL 1,4.6237699332408688,-74.124603616062132,0,,0
92628,100D07,Avenida Calle 3-AK 68 - CL 1,4.6221977718260563,-74.124751310375061,0,,0
92619,098C07,Br. La Igualdad-AK 68 - CL 1,4.62310484676537,-74.124823997550919,0,,0
92616,097D07,AV. Américas-AK 68 - CL 5,4.6279473311334911,-74.12302509410587,0,,0
92615,097C07,AV. Américas-AK 68 - CL 5,4.6277016642332054,-74.1231134011269,0,,0
92609,096A07,Colegio Nicolás Esguerra-AK 68 - CL 8,4.6308610140486577,-74.121785113830342,0,,0
92610,096B07,Colegio Nicolás Esguerra-AK 68 - CL 9,4.6312125873158543,-74.12166933758941,0,,0
92575,091C07,Br. Salazar Gómez-AK 68 - CL 9,4.62986506881168,-74.121829828280141,0,,0
92573,091A07,Br. Salazar Gómez-AK 68 - CL 9,4.6305283070868146,-74.121556724821133,0,,0
92629,101A07,Colegio Nicolás Esguerra-AK 68- CL 10,4.6331302326382975,-74.120486711377353,0,,0
88773,068A06,Br. Centro Industrial-AK 68- CL 20,4.6442279913585978,-74.1109997384978,0,,0
92622,099B07,Avenida Américas-AK 68- CL 4G,4.6277572450664932,-74.122696909280791,0,,0
94455,828A00,AK 7 - AC 32 ,4.6184332802470554,-74.068427103703968,0,,0
94446,819A00,Br. Chapinero Central-AK 7 - AC 57,4.6434691073597305,-74.061907826382352,0,,0
94250,363A00,Br. La Cabrera-AK 7 - AC 85,4.6662093606642676,-74.046375059584108,0,,0
93338,040A00,Br. El Refugio-AK 7 - AC 85,4.66651648850453,-74.045975363130111,0,,0
94187,343A00,Seminario Conciliar de Bogotá-AK 7 - AC 94,4.6739722605295961,-74.0419388939438,0,,0
94567,655A00,Torre Colpatria-AK 7 - CL 24,4.6104848409052259,-74.069977061870532,0,,0
94568,656A00,Planetario de Bogotá-AK 7 - CL 27,4.6121159549104558,-74.069609527036121,0,,0
94582,675A00,Estación Museo Nacional-AK 7 - CL 29,4.6154572368660363,-74.068910041842145,0,,0
94514,777A00,C.C. San Martín-AK 7 - CL 32,4.6192599630468951,-74.06783985141341,0,,0
94451,824A00,Br. Samper-AK 7 - CL 33,4.6210332748379521,-74.067343371635033,0,,0
94515,778A00,Br. La Merced-AK 7 - CL 35,4.6224704286237683,-74.0665268728635,0,,0
94269,386A00,Parque Nacional-AK 7 - CL 36,4.6241900346392528,-74.0660411437955,0,,0
94450,823A00,Ecopetrol-AK 7 - CL 37,4.624833820583226,-74.066122124385174,0,,0
94267,384A00,Universidad Javeriana-AK 7 - CL 40,4.6277320978674643,-74.065191119884688,0,,0
94449,822A00,Br. Sucre-AK 7 - CL 42,4.6300660201745254,-74.0647637687081,0,,0
94266,383A00,Universidad Javeriana-AK 7 - CL 43,4.6304809870666626,-74.064385878295738,0,,0
94448,821A00,Br. Marly-AK 7 - CL 46,4.633297098039348,-74.06395267574355,0,,0
94265,381A00,Br. Pardo Rubio-AK 7 - CL 46,4.6331847582165553,-74.063738150284024,0,,0
94447,820A00,Br. Marly-AK 7 - CL 48,4.6350046684174933,-74.063889735804992,0,,0
94262,377A00,Dirección de Sanidad-AK 7 - CL 52,4.6390132841918206,-74.062880920062625,0,,0
94261,376A00,Br. Chapinero Central-AK 7 - CL 55,4.640994330412771,-74.06258659186598,0,,0
94270,387A00,Br. Bosque Calderón-AK 7 - CL 56,4.64222585445089,-74.062029050618236,0,,0
94259,374A00,Universidad De La Salle-AK 7 - CL 58,4.6438546442247981,-74.0615856825141,0,,0
94260,375A00,Universidad De La Salle-AK 7 - CL 60,4.64574505494113,-74.061137775574551,0,,0
94258,373A00,Colegio Sagrado Corazón de Jesús Bethlemitas-AK 7 - CL 64,4.6482122362233351,-74.059489041379166,0,,0
94257,372A00,Br. Chapinero Norte-AK 7 - CL 66,4.6494115753843337,-74.059085807752368,0,,0
94453,826A00,Clínica La Inmaculada-AK 7 - CL 68,4.6514428203820319,-74.0572333906176,0,,0
94256,371A00,Academia Nacional de Medicina-AK 7 - CL 69,4.6517359395907185,-74.05727620193457,0,,0
94454,827A00,Br. Emaús-AK 7 - CL 70,4.65300012275282,-74.056180483338366,0,,0
94254,367A00,Calle 74-AK 7 - CL 74,4.6563572359942764,-74.054691041382213,0,,0
94255,368A00,Br. Bellavista-AK 7 - CL 74,4.6572221493556585,-74.053816645220579,0,,0
94253,366A00,Pq. el Nogal-AK 7 - CL 76,4.6590930165343751,-74.052373924478317,0,,0
94252,365A00,Embajada de Italia-AK 7 - CL 77,4.6599798361796925,-74.051791411231747,0,,0
93339,041A00,Embajada del Perú-AK 7 - CL 81,4.6627464408440806,-74.048790984262723,0,,0
93337,039A00,Br. Chicó Oriental-AK 7 - CL 88,4.6696706489851234,-74.044477469520189,0,,0
94192,348A00,Br. El Chicó-AK 7 - CL 89,4.6701946984589071,-74.044490748598776,0,,0
94188,344A00,Museo El Chicó-AK 7 - CL 94,4.6751396957403948,-74.040967295752679,0,,0
92696,053A01,Calle 140-AK 9 - Cl141,4.7183870608457879,-74.032304367865081,0,,0
94565,652A00,Br. Veracruz-CL 17 - KR 7,4.6037936055811484,-74.07266195188194,0,,0
92339,585A13,Pl. de Mercado Las Cruces-CL 1F - KR 5,4.5874232374622821,-74.078584042154276,0,,0
94427,605A00,Br. San Bernardo-CL 2 - KR 11,4.5917978544266091,-74.084545638919622,0,,0
94308,434A00,Br. Eduardo Santos-CL 2 - KR 19,4.5960961540018408,-74.0918013632234,0,,0
94301,423A00,Br. Santa Isabel-CL 2 - KR 26,4.59894942698892,-74.0981625186959,0,,0
94298,420A00,Br. Santa Isabel-CL 2 - KR 28,4.6006581036255634,-74.10033116452388,0,,0
90617,474A08,Br. Galán-CL 2 - KR 54,4.616008238369397,-74.121799039398326,0,,0
90540,450A08,Br. IED Patio Bonito II-CL 2 - KR 87,4.6407063354649543,-74.159488933132877,0,,0
90539,449A08,Patio Bonito-CL 2 - KR 87,4.64067487289908,-74.159606648890744,0,,0
94366,502A00,Br. Las Aguas-CL 20 - KR 3,4.6036317787597829,-74.0671506990747,0,,0
94368,505A00,Universidades-CL 22 - KR 2,4.6050347405719814,-74.066068274928625,0,,0
93196,398A07,Br. Gorgonzola-CL 22 -KR 44,4.6224162378052567,-74.104604040012319,0,,0
93467,113A00,Br. Las Nieves-CL 24 - KR 4,4.6080996917890289,-74.067164262814629,0,,0
93465,111A00,C.C. Terraza Pasteur-CL 24 - KR 5,4.6093283000508904,-74.0691224222229,0,,0
92286,539A13,CAI Girardot-CL 2A - KR 2,4.587109643031166,-74.075831890619341,0,,0
93330,031A00,Br. Santa Isabel-CL 3 - AK 27,4.6015344502566276,-74.098159208872161,0,,0
93329,030A00,Br. El Vergel-CL 3 - KR 24,4.599572255544337,-74.095383598021471,0,,0
93331,032A00,Br. Veraguas-CL 3 - KR 26,4.6009021693528034,-74.096973101365734,0,,0
93620,185A00,Br. Samper-CL 33 - AK 7,4.6202182591148686,-74.06799023740399,0,,0
94517,781A00,Br. La Merced-CL 34 - KR 6,4.6210999535279305,-74.0665759938067,0,,0
94431,612A00,Br. Sagrado Corazón-CL 36 - AK 7,4.6237350026142412,-74.067258330243419,0,,0
94317,450A00,Br. San Bernardo-CL 4 - AK 10,4.59355676928443,-74.082667193538626,0,,0
94316,442A00,Br. San Bernardo-CL 4 - KR 12,4.5951797574454316,-74.085237023998971,0,,0
94315,441A00,Br. Eduardo Santos-CL 4 - KR 16,4.5966053888870366,-74.087763452699733,0,,0
81308,805A00,Br. Marly-CL 46 - KR 8,4.632861763355355,-74.0649011608948,0,,0
92944,262A07,Liceo Avenida las Américas-CL 5A - AK50,4.6207552380352821,-74.111880039726259,0,,0
94432,613A00,Br. La Salle-CL 62 - KR 3,4.6453191307496979,-74.057442396839164,0,,0
94415,584A00,Cámara de Comercio Cl 67-CL 67 - KR 8,4.65147656414032,-74.059361690204327,0,,0
93184,386A07,Rosales de Nueva Castilla-CL 7 - KR 90,4.6526122390029476,-74.157207036761,0,,0
93183,385A07,Rosales de Nueva Castilla-CL 7 - KR 90,4.6526932390090252,-74.15741203675033,0,,0
81466,711A00,Br. Porciúncula-CL 73 - KR 9,4.6578962360494165,-74.057325041222157,0,,0
94444,817A00,Br. El Retiro-CL 81 - KR 8,4.6636102358165372,-74.051228041346235,0,,0
92930,245A07,San Andresito 38 - SENA-CL 9 - KR 38,4.6164368205081265,-74.103263070853259,0,,0
4441,BD-194A,CL26 - KR103 ,4.6903766181275648,-74.131431668392054,0,,0
4442,BD-379A,CL26 - KR106 ,4.6942217848844026,-74.13606416834989,0,,0
92813,094A01,Br. Lisboa-Cl140 - KR 9,4.7178444420940675,-74.033036823569446,0,,0
94426,603A00,Kr 4-DG 91 - KR 4,4.6691028614508028,-74.0407579226535,0,,0
94425,602A00,Kr 4-DG 91 - KR 4,4.6693355822026117,-74.0410734515432,0,,0
7972,BD-049A,Escuela de Caballería-AK 7 - CL 101,4.6797134356438264,-74.0384855217254,0,,0
91953,339A13,Br. Atanasio Girardot-KR 1 - CL 2A,4.5867616773239526,-74.0742162087598,0,,0
92284,536A13,Br. Lourdes-KR 1 - CL 2A,4.5869134271008161,-74.0741211210482,0,,0
94491,807A00,Br. Eduardo Santos-KR 18 - CL 3,4.5964355078050865,-74.089702093374257,0,,0
92287,540A13,Br. Lourdes III-KR 1A - CL 3,4.5882089735049147,-74.074444330499588,0,,0
91951,337A13,Br. Lourdes-KR 1A - CL 4,4.5894761169926408,-74.07353581268454,0,,0
93541,155A00,Br. Progreso-KR 24 - AC 6,4.6020655456081974,-74.0935446289719,0,,0
94487,803A00,Br. La Pepita-KR 24 - CL 7,4.6041052580509492,-74.092254807246491,0,,0
93723,200B00,San Andresito San José-KR 24 - CL 9,4.6062502402828134,-74.0908602039485,0,,0
91939,329A13,Br. Las Cruces-KR 3 - CL 1C,4.5848306433730315,-74.07767988239182,0,,0
91940,330A13,Condominios San Sebastián-KR 3 - CL 1C,4.5852573643713921,-74.077307763723937,0,,0
94578,665B00,Estación Universidades-KR 3 - CL 20,4.6044462369434056,-74.067225042213025,0,,0
94576,664A00,Estación Universidades-KR 3 - CL 21,4.6050800469425477,-74.067225145236876,0,,0
94577,665A00,Estación Universidades-KR 3 - CL 21,4.6050573023341546,-74.066875500506882,0,,0
94489,804A00,La Perseverancia-KR 3 - CL 31,4.6160853827163724,-74.062912519097281,0,,0
94329,480A00,Fenalco-KR 4 - AC 19,4.6042639381735961,-74.06860308837534,0,,0
94322,462A00,Biblioteca Luis Angel Arango-KR 4 - CL 12,4.5978903401522793,-74.071902602855147,0,,0
94429,608A00,Parque de los Periodistas-KR 4 - CL 17,4.6020827293804993,-74.0695025065758,0,,0
94367,504A00,U. Jorge Tadeo Lozano-KR 4 - CL 22,4.6069082846745122,-74.067463684697543,0,,0
91942,333A13,Br. Las Cruces-KR 4 - CL 2B,4.5871152374262119,-74.07743304221033,0,,0
94411,564A00,CAI Granada-KR 4 - CL 64,4.6471797918367379,-74.056697130516454,0,,0
94328,479A00,Br. Las Nieves-KR 5 - AC 19,4.6049417104441943,-74.069998470998371,0,,0
93469,115A00,Biblioteca Luis Angel Arango-KR 5 - CL 11,4.5972315107282089,-74.073417112186718,0,,0
94330,481A00,U. Jorge Tadeo Lozano-KR 5 - CL 22,4.6078307600669373,-74.068769065325824,0,,0
94575,663A00,Plaza de Toros La Santamaría-KR 5 - CL 26,4.612289378390475,-74.0673992599052,0,,0
94492,808A00,Teatro El Parque-KR 5 - CL 35,4.6220947707341651,-74.063279091071777,0,,0
94413,565A00,CED Simón Bolívar SedeB-KR 5 - CL 66,4.649351229040577,-74.057252658793232,0,,0
94423,599A00,Cl 85-KR 5 - CL 85,4.6648678572590505,-74.046027172154652,0,,0
94422,598A00,Urb. El Refugio-KR 5 - CL 86,4.6649949962093826,-74.046127016298286,0,,0
92886,208A07,Colegio José Allamano-KR 56 - AC 3,4.6200094035974137,-74.119364584096914,0,,0
90618,475A08,Urbanización Chamicera-KR 56 - CL 2,4.6168296388922947,-74.122107658213253,0,,0
91938,328A13,Br. Las Cruces-KR 6 - CL 1F,4.5888460399201971,-74.0794775879208,0,,0
91941,332A13,Br. Santa Bárbara-KR 6 - DG 3A,4.590761694174148,-74.078392809338908,0,,0
96464,335A13,Iglesia de Santa Bárbara-KR 7 - CL 6A,4.5918739765705929,-74.07889200004405,0,,0
92567,085A07,Parroquia Jesús Amor Misericordioso-KR 78 - AC 8,4.6388862387710956,-74.141438353085732,0,,0
92247,514A13,Br. Las Cruces-KR 8 - CL 1D,4.5889159315347765,-74.0819790906903,0,,0
94401,549A00,Br. Marly-KR 8 - CL 48,4.6350726675978651,-74.064375607045037,0,,0
97661,653A00,Avenida Carrera 19-KR 9 - CL 18,4.6047648137141373,-74.073949206542679,0,,0
97660,653A00,Avenida Carrera 19-KR 9 - CL 18,4.6058999764893018,-74.073200000043613,0,,0
94566,654A00,Teatro Municipal Jorge Eliécer Gaitán-KR 9 - CL 22,4.60882001459687,-74.071720008290242,0,,0
97422,895A00,U.Santo Tomas-KR 9 - CL 51,4.63796297631938,-74.064105000040925,0,,0
94353,879A00,Parque de los Hippies-KR 9 - CL 60,4.6462992363126245,-74.061901041322443,0,,0
93458,104A00,Br. Chapinero Norte-KR 9 - CL 64,4.6492708386743651,-74.060310053368653,0,,0
93987,279A00,Cl 67-KR 9 - CL 67,4.6519668708425526,-74.059480740871209,0,,0
94569,657A00,Estación Bicentenario-KR 9 - CL 6A,4.5934170043166977,-74.080906165459936,0,,0
93988,280A00,Br. Quinta Camacho-KR 9 - CL 70,4.6542908971801609,-74.0580181965797,0,,0
94277,394A00,Universidad EAN-KR 9 - CL 71,4.6555895897720925,-74.0571427794914,0,,0
93459,105A00,KR 9-KR 9 - CL 73,4.6573042824802711,-74.055942999913768,0,,0
93460,106A00,Gimnasio Moderno-KR 9 - CL 76,4.66027000750723,-74.053980095100258,0,,0
93461,107A00,Br. El Nogal-KR 9 - CL 79,4.6622242358667467,-74.052705041316415,0,,0
94125,318A00,Br. El Nogal-KR 9 - CL 81,4.6635114627680307,-74.051833986970038,0,,0
98596,674A03,KR 90 - 159A ,4.7548512359141188,-74.076090524458991,0,,0
96975,420A07,Nueva Castilla IV-KR 92 - CL 7,4.6532299763424305,-74.157300000033075,0,,0
7870,245A04,Urb. Parque de los Sauces-CL 81 - KR 115,4.7243212065528617,-74.120374324352653,0,,0
94557,639A00,Urbanización América-TV 3 - CL 51,4.63722823641293,-74.0616330415856,0,,0
92488,052A07,Br. San Francisco-TV 42 - CL 3,4.6156035274815475,-74.1133778989132,0,,0
93103,374A07,Br. San Francisco-TV 42 - CL 4,4.6167533614872411,-74.110631141361083,0,,0
94480,798A00,Br. El Refugio-TV 5 - CL 88,4.66893049179637,-74.044157118800513,0,,0
90716,527A08,Br. La Ponderosa-TV 53 - CL 1,4.6122127153616921,-74.120841166614554,0,,0
96878,482A08,TV 53 - CL 2 ,4.6136282215054756,-74.118496620038556,0,,0
90622,479A08,Br. El sol-TV 53 - CL 2,4.6133334898712324,-74.117959528832813,0,,0
90778,550A08,Br. Galán-TV 60 - CL 1,4.6183110828693792,-74.123851126614937,0,,0
88351,435A11,Quiba-Vereda Quiba,4.5427472405469453,-74.1701840392319,0,,0
93292,012A00,Br. San Bernardo-AC 1 - KR 13A,4.591377771899646,-74.088114269747948,0,,0
94248,360A00,Br. Eduardo Santos-AC 1 - KR 19A,4.5927383482776039,-74.091143664689511,0,,0
94247,359A00,Br. Eduardo Santos-AC 1 - KR 19A,4.5933932329512315,-74.093426143230175,0,,0
94246,358A00,Br. El Vergel-AC 1 - KR 24B,4.5947266711579688,-74.098040822838058,0,,0
94245,357A00,Br. Santa Isabel-AC 1 - KR 26A,4.5949773503043785,-74.101687715451419,0,,0
92961,162B01,Escuela de Infantería-AC 100 - KR 8,4.6805642699632664,-74.039171351624077,0,,0
92890,212A07,ICBF-AC 12 - KR 71,4.6457517242718342,-74.132057024060117,0,,0
94462,836A00,Ferrocarriles Nacionales Estación de la Sabana-AC 13 - KR 18,4.60740068111984,-74.08382688019968,0,,0
94458,831A00,Alcaldía Local Los Mártires-AC 13 - KR 19,4.6077057979131517,-74.08477247187912,0,,0
94464,837A00,Br.El Listón-AC 13 - KR 20,4.6089926906504521,-74.085662992577923,0,,0
94457,830A00,Br. La Sabana-AC 13 - KR 21,4.6093111313581279,-74.086593617394243,0,,0
94456,829A00,Br. Ricaurte-AC 13 - KR 26,4.6112993453792468,-74.088875365802409,0,,0
94465,838A00,Estación Ricaurte-AC 13 - KR 27,4.612518511726166,-74.089626653315236,0,,0
94466,839A00,Br. Paloquemao-AC 13 - KR 29,4.6141596526260154,-74.091470602158822,0,,0
94479,797A00,Estación Ricaurte-AC 13 - KR 29,4.6137047797942294,-74.091616256744658,0,,0
93097,368A07,Secretaría Distrital de Salud-AC 13 - KR 32,4.6159246247527559,-74.094041350340447,0,,0
93098,369A07,Br. Estación Central-AC 13 - KR 33,4.61713077707895,-74.094847516649523,0,,0
93096,367A07,SuperCADE Calle 13-AC 13 - KR 36,4.6189900470198291,-74.097457197269108,0,,0
93099,370A07,Estación Zona Industrial-AC 13 - KR 38,4.6202261457947928,-74.098279274833274,0,,0
93094,365A07,Br. Gorgonzola-AC 13 - KR 44,4.6239724756725087,-74.103001900460413,0,,0
92527,067A07,Br. El Ejido-AC 13 - KR 46,4.6248505109798659,-74.103487183751625,0,,0
92526,066A07,Br. Gorgonzola-AC 13 - KR 47,4.6257590077728725,-74.10504959987756,0,,0
89483,447A06,Centro Industrial-AC 13 - KR 62,4.634058237945867,-74.1138730392641,0,,0
94622,712A00,Estación San Façon - Cra. 22-AC 13 - TV 22,4.6105002949376965,-74.087388008786249,0,,0
93095,366A07,Colegio La Merced-AC 13 - TV 42,4.6216431352438665,-74.100445905525717,0,,0
92644,033A01,Br. Ginebra Norte-AC 134 - AK 7,4.7115796267152694,-74.0295151135714,0,,0
93238,263A01,Br. Lisboa-AC 134 - AK 7,4.7121255473205075,-74.0303788742811,0,,0
93076,209A01,Br. Los Cedros Oriental-AC 147 - AK 7,4.7229084834987747,-74.026937071122035,0,,0
93077,210A01,C.C. Show Place-AC 147 - AK 7,4.7232013207568251,-74.027067562124671,0,,0
76788,080A01,Br. La Liberia-AC 161 - AK 9,4.73815153806355,-74.032353422523329,0,,0
92795,074A01,Br. San Cristóbal Norte-AC 161 - KR 8,4.7369384095098983,-74.027540598049939,0,,0
89185,262A06,COLSUBSIDIO-AC 17 - AK 68,4.6406689593272459,-74.117036799271943,0,,0
92923,151A01,Br. Santa Teresa-AC 170 - AK 7,4.7472080363255742,-74.024653665456512,0,,0
94201,224A01,Br. Pradera Norte-AC 170 - AK 9,4.7481154270383374,-74.032535916687635,0,,0
93924,669A01,Centro María Auxiliadora-AC 170 - KR 8,4.74725523414005,-74.026979040181075,0,,0
94197,225A01,Centro María Auxiliadora-AC 170 - KR 8,4.7469153704583356,-74.0249244217179,0,,0
93937,249A00,Br. La Alameda-AC 19 - AK 13,4.6077580062014372,-74.074830630553237,0,,0
93870,241B00,Br. La Capuchina-AC 19 - AK 13,4.608057191721687,-74.075645208931633,0,,0
93949,256A00,Pl. Paloquemao-AC 19 - AK 27,4.6158791098951673,-74.085275305481659,0,,0
93393,067B00,C.C. Calima-AC 19 - AK 27,4.6165943785283368,-74.086087066043945,0,,0
92706,121B07,Br. Estación Central-AC 19 - AK 36,4.622226532965314,-74.092557009402711,0,,0
92705,121A07,Br. Estación Central-AC 19 - AK 36,4.6221221206431107,-74.092450002155729,0,,0
92426,024B07,Br. Industrial Centenario-AC 19 - AK 39,4.6240246194598669,-74.093700367076224,0,,0
93938,249B00,Br. La Alameda-AC 19 - KR 12,4.6075593653226763,-74.074586714815553,0,,0
93869,241A00,Br. La Capuchina-AC 19 - KR 12,4.6074667759920613,-74.0748903509946,0,,0
93940,250B00,Br. La Favorita-AC 19 - KR 16,4.609869295618136,-74.07823119128598,0,,0
93944,253B00,Br. La Favorita-AC 19 - KR 17,4.6108098577776344,-74.079608511682878,0,,0
93943,253A00,Br. La Favorita-AC 19 - KR 17,4.6107121356127019,-74.079440038178532,0,,0
93945,254A00,Br. La Favorita-AC 19 - KR 18,4.6113329573950308,-74.079849932917057,0,,0
93946,254B00,Br. La Favorita-AC 19 - KR 18,4.6110165903192044,-74.079426572604262,0,,0
93284,007A00,Br. El Listón-AC 19 - KR 20,4.6136242372761185,-74.082592041257442,0,,0
93285,007B00,Br. El Listón-AC 19 - KR 22,4.6132772372676554,-74.082188041283985,0,,0
93948,255B00,Br. El Listón-AC 19 - KR 22,4.613579846201973,-74.082975569077476,0,,0
93950,256B00,Pl. Paloquemao-AC 19 - KR 22,4.6155590855178659,-74.084873891967533,0,,0
93947,255A00,Br. El Listón-AC 19 - KR 22,4.6134662612310224,-74.082854976981778,0,,0
93952,257B00,Pl. Paloquemao-AC 19 - KR 25,4.6156642961618948,-74.085501969108236,0,,0
93392,067A00,C.C. Calima-AC 19 - KR 28,4.6167016547369153,-74.0862135123631,0,,0
93175,131B07,Br. Estación Central-AC 19 - KR 32,4.6199620708342835,-74.090195904839348,0,,0
93174,131A07,Br. Estación Central-AC 19 - KR 32,4.6201418923905386,-74.090375604117966,0,,0
92428,025B07,Br. Cundinamarca-AC 19 - KR 32,4.620173577060112,-74.0901248577003,0,,0
92427,025A07,Br. Cundinamarca-AC 19 - KR 33,4.6204619181360824,-74.090409073953722,0,,0
92703,120A07,Br. Cundinamarca-AC 19 - KR 34,4.622370223029642,-74.09244218164423,0,,0
92704,120B07,Br. Cundinamarca-AC 19 - KR 34,4.6218014151382025,-74.091867612979684,0,,0
93695,567A01,Iglesia San Luis de Tolosa-AC 191 - CR 8,4.7677172339721254,-74.029212039501559,0,,0
89012,180A06,Br. Ciudad Hayuelos-AC 22 - KR 81,4.663681351061272,-74.128237807688492,0,,0
88815,087A06,C.C. Baleares-AC 22 - KR 82,4.6646122380531425,-74.12895503772522,0,,0
94312,089A06,Servisalud Capellanía-AC 22 - KR 92,4.6688399762367352,-74.134485000035312,0,,0
96115,088A06,Br. El Tintal Central-AC 22 - KR 93,4.6689705342361885,-74.133820300034685,0,,0
89455,418A06,Estación Corferias-AC 26 - AK 40,4.63399204585679,-74.089680931218027,0,,0
89342,386A06,Avenida Carrera 68-AC 26 - AK 68,4.6532949585126255,-74.103734461341659,0,,0
88827,388A05,Estación Salitre El Greco-AC 26 - AK 68,4.6498819441497252,-74.100566077513648,0,,0
88947,443A05,Avenida Carrera 68-AC 26 - AK 68,4.6539260027775029,-74.103090254766457,0,,0
88792,372A05,Estación Av. Rojas-AC 26 - AK 70,4.6622631976268814,-74.108495256690915,0,,0
88886,125A06,Portal Eldorado-AC 26 - AK 96,4.68406764911905,-74.12456730844454,0,,0
94476,794A00,Cementerio Central-AC 26 - KR 16,4.6169228584609083,-74.073659857217592,0,,0
94475,793A00,Cementerio Central-AC 26 - KR 18,4.6170627696485385,-74.0742509946356,0,,0
94477,795A00,Br. Estrella-AC 26 - KR 19,4.6192058753456307,-74.075188528916115,0,,0
94478,796A00,Estación Centro Memoria-AC 26 - KR 23,4.6217732713959156,-74.07708659588765,0,,0
94473,791A00,Estación Centro Memoria-AC 26 - KR 25,4.62187590712986,-74.077571013489347,0,,0
88989,460A05,Estación Ciudad Universitaria-AC 26 - KR 36,4.6323614127601136,-74.084458648965708,0,,0
89456,419A06,Estación Ciudad Universitaria-AC 26 - KR 36,4.6320460709573412,-74.084735758515336,0,,0
88990,461A05,Estación Corferias-AC 26 - KR 39,4.6338358895641329,-74.087821824784342,0,,0
89390,417A06,Estación Quinta Paredes-AC 26 - KR 45,4.636497995473837,-74.092946752283041,0,,0
88992,463A05,RTVC-AC 26 - KR 45,4.63874543170558,-74.0933380629099,0,,0
89388,415A06,Estación Gobernación-AC 26 - KR 51,4.6417305756790856,-74.0962556363249,0,,0
88831,391A05,Estación Gobernación-AC 26 - KR 54,4.6420877363076594,-74.095563898765462,0,,0
89386,414A06,Estación CAN-AC 26 - KR 59,4.6455685785037248,-74.09873953265901,0,,0
89385,413A06,Estación CAN-AC 26 - KR 59,4.64578836114404,-74.09789087788738,0,,0
89387,414B06,Estación CAN-AC 26 - KR 59,4.6452681441672308,-74.098822533704876,0,,0
89465,428A06,CC Gran Estación-AC 26 - KR 60,4.64760137571347,-74.10006086314462,0,,0
89373,400A06,Estación Salitre - El Greco-AC 26 - KR 66,4.6503627623881769,-74.101880111539856,0,,0
89027,480A05,Compensar CUR-AC 26 - KR 69,4.658776028580788,-74.106242141586293,0,,0
89011,178A06,Cámara de Comercio de Bogotá Sede Salitre-AC 26 - KR 69,4.6584322374930585,-74.1073420388928,0,,0
89334,376A06,Estación Normandía-AC 26 - KR 74,4.6691123664958845,-74.11381923894352,0,,0
88793,373A05,Estación Normandía-AC 26 - KR 74,4.6697590877398447,-74.113281079841812,0,,0
88794,374A05,Estación Modelia-AC 26 - KR 82,4.6746575028861619,-74.116428725922063,0,,0
89335,377A06,Estación Modelia-AC 26 - KR 82,4.6738449505238595,-74.116865084045429,0,,0
88084,038A05,Portal Eldorado-AC 26 - TV 93,4.6842358043155565,-74.123337879302653,0,,0
92437,032A07,Br. Comuneros-AC 3 - KR 31B,4.6048568470191693,-74.102840857648673,0,,0
89610,039A08,Br. La Asunción-AC 3 - KR 31D,4.6053830515195768,-74.103954998675846,0,,0
89653,049A08,Br. Montes-AC 3 - KR 40B,4.612977261806793,-74.112358133852567,0,,0
92440,035A07,Br. Barcelona-AC 3 - KR 53B,4.61649754140419,-74.115951510835771,0,,0
89614,043A08,Br. Galán-AC 3 - KR 56A,4.6199225222052238,-74.1201942491635,0,,0
89861,141A08,Br. Hipotecho Occidental-AC 3 - KR 70B,4.6252179177568156,-74.1328808446149,0,,0
89895,142A08,Mundo Aventura-AC 3 - KR 71C,4.62555223696621,-74.136258899612841,0,,0
93493,139A00,Br. Samper-AC 32 - KR 13,4.6191172368379423,-74.069425041713316,0,,0
93491,136A00,Br. Teusaquillo-AC 32 - KR 17,4.6208965551733732,-74.0722912077273,0,,0
93490,135A00, Armenia-AC 32 - KR 17,4.6204267020852381,-74.0734535070054,0,,0
93619,183A00,Br. Teusaquillo-AC 34 - AK 19,4.6237113759827642,-74.074258849681385,0,,0
94194,350A00,Br. Teusaquillo-AC 34 - KR 16,4.62325495883985,-74.071752600638717,0,,0
94193,349A00,CAI Teusaquillo-AC 34 - KR 16,4.6234307889417838,-74.071782820310219,0,,0
93618,182A00,Br. Teusaquillo-AC 34 - KR 20,4.62382649667557,-74.074149044361079,0,,0
93413,091A00,Urbanización La Victoria-AC 34 - KR 21,4.6239442369574713,-74.075581041299813,0,,0
93412,090A00,CONACED-AC 34 - KR 24,4.6241532766139706,-74.0759228171552,0,,0
93410,088A00,Concejo De Bogotá-AC 34 - KR 27,4.6244261048512287,-74.077514003231542,0,,0
93986,278A00,Br. Sucre-AC 45 - AK 13,4.6322359083586679,-74.066793637531561,0,,0
93408,086A00,Br. Palermo-AC 45 - AK 19,4.6332461303703294,-74.07137147635018,0,,0
93407,085A00,Br. Santa Teresita-AC 45 - AK 19,4.6332670429162048,-74.072362504360427,0,,0
93401,078A00,Br. Palermo-AC 45 - KR 20,4.6335969908836461,-74.073293562611042,0,,0
93400,077A00,Br. Santa Teresita-AC 45 - KR 22,4.6336749490564983,-74.074649976389551,0,,0
93333,034A00,Estación Marly-AC 53 - AK 13,4.6403139507791389,-74.0655589989222,0,,0
93335,037A00,C.C. Galerías-AC 53 - AK 24,4.6420288958721336,-74.075164641063267,0,,0
88309,135A05,Br. Rafael Núñez-AC 53 - AK 45,4.6455109168857556,-74.084569896107411,0,,0
88372,158A05,Br. Pablo VI-AC 53 - AK 50,4.6478644857097144,-74.087135165189508,0,,0
88081,035A05,Parque Metropolitano Simón Bolívar-AC 53 - AK 60,4.6525651787402884,-74.093805701550565,0,,0
88376,162A05,Br. Salitre Greco-AC 53 - AK 60,4.652371462253182,-74.094020026110272,0,,0
93958,262A00,Br. Quesada-AC 53 - KR 13,4.6401468736954978,-74.065575436936143,0,,0
93957,261A00,Br. Quesada-AC 53 - KR 15,4.6405044601959755,-74.0677573630549,0,,0
94273,390A00,Banco Central-AC 53 - KR 18,4.6409756781284335,-74.070351658487112,0,,0
93334,035A00,Br. Banco Central-AC 53 - KR 19,4.6412516863289266,-74.070919930983,0,,0
94272,389A00,C.C. Morichal-AC 53 - KR 21,4.6415486417223413,-74.073380661586214,0,,0
94343,862A00,Br. Galerías-AC 53 - KR 22,4.64160023668342,-74.0727010409526,0,,0
93956,260A00,Br. Galerías-AC 53 - KR 25,4.6418833700006639,-74.075178390700984,0,,0
93955,259A00,Br. Galerías-AC 53 - KR 28,4.6422960684756731,-74.076673324093761,0,,0
88311,137A05,ICONTEC-AC 53 - KR 37,4.6437227569860564,-74.082513754848122,0,,0
88016,016A05,Br. Nicolás de Federmán-AC 53 - KR 46,4.6460328316961474,-74.08451243395524,0,,0
88373,159A05,Br. La Esmeralda-AC 53 - KR 54,4.6487965266060582,-74.089297805790281,0,,0
88082,036A05,Br. Pablo VI-AC 53 - KR 54,4.6492399780074747,-74.089066948436113,0,,0
88526,209A05,Br. La Esmeralda-AC 53 - KR 57,4.65013397211404,-74.091195762642357,0,,0
88375,161A05,Br. La Esmeralda-AC 53 - KR 59,4.650791830940415,-74.092133394047281,0,,0
88378,164A05,Br. Salitre Greco-AC 53 - KR 67,4.655558551506342,-74.0985302075267,0,,0
88169,088A05,Br. Normandía Occidental-AC 53 - KR 73,4.673445370173523,-74.108149173293313,0,,0
88173,092A05,Br. Santa Cecilia-AC 53 - KR 78,4.67872185885448,-74.111870059886542,0,,0
94556,638A00,Avenida Caracas-AC 57 - KR 13,4.6437931584580445,-74.064757796976622,0,,0
93972,264A00,IED Manuela Beltrán-AC 57 - KR 15,4.644168499691177,-74.06702552420677,0,,0
93971,263A00,IED Manuela Beltrán-AC 57 - KR 15,4.6443274872150111,-74.066919835577863,0,,0
93973,265A00,Pq. El Divino Salvador-AC 57 - KR 17,4.6446689606117086,-74.068895194928757,0,,0
93974,266A00,Parroquia El Divino Salvador-AC 57 - KR 17,4.6444907254278158,-74.068975605676144,0,,0
93975,267A00,Br. San Luis-AC 57 - KR 20,4.6450144391594206,-74.070893123067933,0,,0
93976,268A00,Br. San Luis-AC 57 - TV 25,4.6453742384517,-74.073015666792159,0,,0
93978,270A00,Br. San Luis-AC 57 - TV 27,4.6456919368513994,-74.074896477473757,0,,0
93391,064A00,Br. San Bernardo-AC 6 - KR 12A,4.5964831118089693,-74.08402832740822,0,,0
93387,060A00,Br. La Estanzuela-AC 6 - KR 16A,4.5980224523598405,-74.086719630984021,0,,0
92697,114A07,Br. Comuneros-AC 6 - KR 31C,4.6083141790211011,-74.1007711589013,0,,0
93181,383A07,Br. Pensilvania-AC 6 - KR 34A,4.6109209212460849,-74.10246125052133,0,,0
92699,117A07,Br. Comuneros-AC 6 - KR 34A,4.61041320685208,-74.1029797441929,0,,0
92700,118A07,Br. Los Ejidos-AC 6 - KR 41A,4.617648513229903,-74.105498836521733,0,,0
92672,109A07,Primavera Norte-AC 6 - TV 42A,4.6192945111068964,-74.1062286588447,0,,0
93296,016A00,Br. Muequetá-AC 63 - AK 24,4.6509964264156274,-74.071965605110819,0,,0
88364,150A05,Bibl. Virgilio Barco-AC 63 - AK 60,4.6580960002748526,-74.087851340681354,0,,0
88319,145A05,Museo de los Niños-AC 63 - AK 60,4.6611072853524957,-74.089617506444682,0,,0
88365,151A05,Centro de Alto Rendimiento-AC 63 - AK 60,4.658211801846317,-74.087633749746246,0,,0
88314,140A05,Unidad Deportiva El Salitre-AC 63 - AK 68,4.66722491152254,-74.095606870671219,0,,0
95169,141A05,Instituto Técnico Industrial (ITI) Francisco José de Caldas-AC 63 - AK 68,4.6673366777880085,-74.095335098621376,0,,0
88313,139A05,Pq. El Salitre-AC 63 - AK 68,4.6634223280482763,-74.091208564623983,0,,0
88312,138A05,Pq. Metropolitano Simón Bolívar-AC 63 - AK 68,4.6638900466840774,-74.09184552078338,0,,0
88513,201A05,Centro Artesanal El Dorado-AC 63 - AK 96,4.6911199873919562,-74.120024102044141,0,,0
88514,201B05,Centro Artesanal El Dorado-AC 63 - AK 96,4.691233491852639,-74.12009098545542,0,,0
93293,013A00,Br. La Esperanza-AC 63 - KR 15,4.6499531822972289,-74.066137028361354,0,,0
93294,014A00,Centro Johann Kepler-AC 63 - KR 16,4.64988640560628,-74.066985768967513,0,,0
94135,325A00,Br. San Luis-AC 63 - KR 18,4.650218125709471,-74.068817506585049,0,,0
93295,015A00,Br. Baquero-AC 63 - KR 19,4.6504901616399605,-74.069179324742663,0,,0
94134,324A00,CENDA-AC 63 - KR 22,4.6507265445628745,-74.071673592425967,0,,0
93297,017A00,Br. Quinta Mutis-AC 63 - KR 26,4.6513674980405515,-74.073993718441443,0,,0
93298,018A00,Col Nuestra Señora del Pilar-AC 63 - KR 27,4.6512809072254457,-74.074707621789514,0,,0
93299,019A00,IED Alemania Solidaria-AC 63 - KR 28,4.6516833977184948,-74.075693033820741,0,,0
88370,156A05,Pq. de los Novios-AC 63 - KR 45,4.6527311019349851,-74.081415984038074,0,,0
88367,153A05,Bibl. Virgilio Barco-AC 63 - KR 47,4.6563341961603157,-74.086638307276246,0,,0
88369,155A05,Palacio de los Deportes-AC 63 - KR 56,4.654924306730984,-74.0853526000462,0,,0
88318,144A05,Museo de los Niños-AC 63 - KR 65,4.6605953925512829,-74.08955162331813,0,,0
88885,426A05,Urb. Colón-AC 63 - KR 73,4.675326527888358,-74.104940666789091,0,,0
88104,063A05,Portal de Santa Inés-AC 63 - KR 98,4.6937864197182586,-74.122995670130692,0,,0
93380,053A00,C.C. Lourdes-AC 63 - KR 9A,4.64917938248617,-74.062504139461922,0,,0
88931,429A05,Los Azafranes-AC 63 - TV 85,4.6819689582803372,-74.112097551543755,0,,0
88932,430A05,Los Monjes-AC 63 - TV 85,4.6818895104470863,-74.1123847416854,0,,0
88103,062A05,Br. Los Álamos Sector Industrial-AC 63 - TV 93,4.6912847730538614,-74.119825436072858,0,,0
88162,079B05,Los Álamos-AC 63 - TV 93,4.6898132660466505,-74.119206694804362,0,,0
88160,078A05,Parque Empresarial El Dorado-AC 63 - TV 93,4.6880315575225113,-74.117843830273515,0,,0
88161,079A05,Los Álamos-AC 63 - TV 93,4.6896546410620772,-74.11914205079772,0,,0
88519,205A05,Br. San Antonio Engativá-AC 63 KR 108B,4.6995923993379565,-74.130716694263171,0,,0
94137,327A00,Colegio San Pedro Nolasco-AC 68 - KR 17,4.6566581739721133,-74.066062773888717,0,,0
94467,841A00,Br. Colombia-AC 68 - KR 20,4.6576794845817817,-74.067695917066075,0,,0
94139,328B00,Br. Alcázares-AC 68 - KR 24,4.6593254861074458,-74.069960264594485,0,,0
94138,328A00,Br. Alcázares-AC 68 - KR 25,4.6595646902409493,-74.070306600525868,0,,0
88475,187B05,Hsp. Infantil San José-AC 68 - KR 52,4.666047509432655,-74.078182037441678,0,,0
86657,012B04,Hsp. Infantil San José-AC 68 - KR 52,4.6660043377287188,-74.077932135510451,0,,0
88474,187A05,Hsp. Infantil San José-AC 68 - KR 52,4.6658032384313834,-74.078028515689823,0,,0
86630,012A04,Hsp. Infantil San José-AC 68 - KR 53,4.6664096453858015,-74.078191197074844,0,,0
88472,186A05,Pq. Público Modelo-AC 68 - KR 57,4.668629651631246,-74.079976464757593,0,,0
88473,186B05,Pq. Público Modelo-AC 68 - KR 57,4.66875270287984,-74.080049006114137,0,,0
86658,013A04,Pq. Público Modelo-AC 68 - KR 57,4.6689262339630115,-74.079942069253548,0,,0
86961,121B04,Avenida La Esmeralda-AC 68 - KR 58,4.6705278796997849,-74.08105964662316,0,,0
86960,121A04,Avenida La Esmeralda-AC 68 - KR 59,4.6709415415222253,-74.0813314595117,0,,0
88470,185A05,IED Centro Obrero-AC 68 - KR 60,4.6722439469087567,-74.082445434438483,0,,0
88471,185B05,IED Centro Obrero-AC 68 - KR 62,4.672708489493858,-74.0827508853568,0,,0
86959,120B04,Colegio Cooperativo Unión Social-AC 68 - KR 63,4.6737898191714633,-74.08326525545651,0,,0
86958,120A04,Colegio Cooperativo Unión Social-AC 68 - KR 64,4.6742103356073761,-74.083541460354056,0,,0
88468,184A05,C.C. Mi Placita-AC 68 - KR 65,4.6747502958033085,-74.084146503469782,0,,0
94126,319A00,U Pedagógica Nacional-AC 72 - AK 11,4.6574951021613726,-74.059509582321667,0,,0
94122,314A00,Universidad Pedagógica Nacional-AC 72 - AK 11,4.6575933918034726,-74.059102627764318,0,,0
94127,320A00,C.C. Avenida Chile-AC 72 - KR 10,4.6564145270706856,-74.057928204275939,0,,0
94123,315A00,Centro Comercial Av Chile-AC 72 - KR 10,4.6569512399707058,-74.058121104135608,0,,0
94279,398A00,Br. Porciúncula-AC 72 - KR 13,4.658758503338019,-74.060810338905384,0,,0
94278,395A00,Estación Calle 72-AC 72 - KR 13,4.6585397311649981,-74.061035717404224,0,,0
94121,313A00,Br. San Felipe-AC 72 - KR 17,4.6601411445588106,-74.062779880601113,0,,0
94124,317A00,Br. Colombia-AC 72 - KR 17,4.6604440154498148,-74.0636000380435,0,,0
93279,002A00,Br. San Felipe-AC 72 - KR 22,4.66235769307229,-74.0660313299172,0,,0
93377,050A00,Br. Colombia-AC 72 - KR 22,4.66221235841921,-74.06615366402329,0,,0
93280,003A00,Pq. Alcázares-AC 72 - KR 27,4.66412084224742,-74.068772127861081,0,,0
93282,005A00, Alcázares-AC 72 - KR 28,4.6653833471992385,-74.070426581336193,0,,0
93281,004A00,Br. Los Alcázares Norte-AC 72 - KR 28,4.6655054712663331,-74.070265642227142,0,,0
93418,095A00,Sede Comunal 11 de Noviembre-AC 72 - KR 29,4.6664490863363408,-74.071552181042065,0,,0
93283,006A00,Monumento Rafael Uribe Uribe-AC 72 - KR 29,4.6663890704241391,-74.071815529144558,0,,0
86621,003A04,Br. 12 de Octubre-AC 72 - KR 52,4.6691110059464451,-74.075046049328648,0,,0
86789,074A04,Br. San Fernando-AC 72 - KR 53,4.6695621956744979,-74.075902709710888,0,,0
86957,119A04, San Fernando Occidental-AC 72 - KR 62,4.6740236135363853,-74.081408096495764,0,,0
87460,454A04,Br. San Fernando Occidental-AC 72 - KR 65,4.6755362366039721,-74.083397039526275,0,,0
86953,117C04,CAI Las Ferias-AC 72 - KR 69,4.6813928180964313,-74.089084892049073,0,,0
86947,115C04,Br. Santa María-AC 72 - KR 75,4.6888240862870676,-74.09687944588164,0,,0
86945,115A04,Br. Santa María-AC 72 - KR 75,4.6895286252530939,-74.097803043178345,0,,0
86946,115B04,Br. Santa María-AC 72 - KR 75,4.689009703474798,-74.097134052694443,0,,0
86944,114C04,Br. Tabora-AC 72 - KR 76,4.6906698206971482,-74.099279311872593,0,,0
86910,113A04,Br. Tabora-AC 72 - KR 80,4.6931148776437359,-74.102301822042875,0,,0
86911,113B04,Br. Tabora-AC 72 - KR 80,4.6930608431750356,-74.102178727134842,0,,0
88398,176A05,Br. Santa Helenita-AC 72 - KR 80,4.6925826490811327,-74.1019609418075,0,,0
86912,113C04,Br. Tabora-AC 72 - KR 80,4.6928601455718439,-74.101953238455,0,,0
87280,309D04,Br. Almería-AC 72 - KR 83,4.6946493871629622,-74.10422946646,0,,0
88424,177A05,Avenida Ciudad de Cali-AC 72 - KR 83,4.6946870246639572,-74.104622593141585,0,,0
86998,122B04,Br. Florencia-AC 72 - KR 88,4.6974282170432913,-74.107974238755261,0,,0
86999,122C04,Br. Florencia-AC 72 - KR 88,4.6972345736268286,-74.107657367655548,0,,0
88385,170A05,Br. Zarzamora-AC 72 - KR 90,4.697820303754324,-74.10888476973021,0,,0
86997,122A04,Br. Florencia-AC 72 - KR 90,4.6975440726038062,-74.1081511218881,0,,0
87000,123A04,Br. Santa Rosita-AC 72 - KR 93,4.7002613682380447,-74.111987624169259,0,,0
87001,123B04,Br. Santa Rosita-AC 72 - KR 93,4.6999830295614942,-74.111588010993643,0,,0
87003,124A04,Br. El Cedro-AC 72 - KR 97,4.7023713044904465,-74.114685872160777,0,,0
92490,054A07,Kr 72A-AC 8 - KR 72A,4.6370797209610437,-74.137954283987938,0,,0
92489,053A07,Br. Las Dos Avenidas-AC 8 - KR 72B,4.6369157378269552,-74.138444973660512,0,,0
92762,168A07,Br. Castilla-AC 8 - KR 78C,4.638713238742505,-74.1430550378027,0,,0
93082,353A07,Br. Castilla-AC 8 - KR 79C,4.6403028712058987,-74.144918807709971,0,,0
93605,169A00,Estación El Polo-AC 80 - KR 27,4.6697436720236558,-74.064268635077653,0,,0
93604,168A00,Estación Polo-AC 80 - KR 27,4.6706330815861223,-74.064470463950343,0,,0
87374,414A04,Estación Granja - Cr. 77-AC 80 - KR 77,4.6979442896518613,-74.09447292125283,0,,0
87359,339A04,Br. París Gaitán-AC 80 - KR 84,4.702152052468886,-74.099602589963567,0,,0
87372,412A04,Br. La Granja II-AC 80 - KR 84,4.7019474196863333,-74.100014406992344,0,,0
87370,410A04,Estación Carrera 90-AC 80 - KR 90,4.704345845072635,-74.104490731655716,0,,0
87411,427A04,Br. Primavera-AC 80 - KR 93,4.7058913336086192,-74.106859545749771,0,,0
87369,409A04,Estación Quirigua-AC 80 - KR 94,4.7061847526056582,-74.108382561620118,0,,0
87368,408A04,Portal de la 80-AC 80 - KR 96,4.7075725256482377,-74.110093774081,0,,0
98584,493A04,AC 80 - TV 94 ,4.7069219760291805,-74.1086710000425,0,,0
86854,086A04,Br. Garcés Navas Oriental-AC 80 - TV106,4.71459748696178,-74.116388596202412,0,,0
86665,017A04,Gimnasio Moderno Montesoriano-AC 80 KR 116B,4.72516568086207,-74.123840349743517,0,,0
94083,295A00,C.C. Andino-AC 82 - KR 12,4.6675112530339513,-74.052703083300244,0,,0
93989,281A00,C.C. La Cabrera-AC 85 - AK 11,4.6679554800695531,-74.051850679380209,0,,0
93396,072A00,Pq. León de Greiff-AC 85 - KR 13,4.6694392358294579,-74.054124041047956,0,,0
93397,074A00,Estación Cl 85-AC 85 - KR 19,4.6718852359395191,-74.058812040769041,0,,0
86855,087A04,Br. La Serena-AC 90 - KR 84,4.7088168193391988,-74.093335196862427,0,,0
87013,130A04,Uniminuto-AC 90 - KR 87,4.7116109401254125,-74.096407723028989,0,,0
86696,030A04,Br. Los Cerezos-AC 90 - KR 91,4.7126529420864562,-74.09722129190871,0,,0
86695,029A04,Br. Quirigua-AC 90 - KR 91,4.7131976929690085,-74.098015460627792,0,,0
93994,287A00,Chicó Norte-AC 92 - KR 14,4.6753622356804909,-74.051210041021733,0,,0
93995,288A00,CADE Chicó-AC 92 - KR 16,4.6765142357291358,-74.053428040886729,0,,0
96183,864A00,Br. Chicó Norte Sector III-AC 94 - KR 16,4.6803549760929446,-74.052114000048675,0,,0
94364,499A00,Teatro La Media Torta-AK 1 - CL 19A,4.5996180760193237,-74.0654287042011,0,,0
94495,811A00,Br. La Alameda-AK 10 - AC 19,4.6076840708194968,-74.073494074506257,0,,0
94581,674A00,Br. San Diego-AK 10 - AC 26,4.612874924677774,-74.07007436936037,0,,0
94522,786A00,Estación San Victorino-AK 10 - CL 12,4.6014380336359153,-74.076914828734246,0,,0
94525,789A00,Estación San Victorino-AK 10 - CL 12,4.6009379765234382,-74.077689000040124,0,,0
94524,788A00,Br. La Capuchina-AK 10 - CL 15,4.6037162050335709,-74.075857690538072,0,,0
94523,787A00,Br. Veracruz-AK 10 - CL 15,4.6035630816026005,-74.075609202308016,0,,0
94496,812A00,Estación Las Nieves-AK 10 - CL 17,4.6058989604751659,-74.074549969505426,0,,0
94493,809A00,Estación Las Nieves-AK 10 - CL 18,4.6061964959631627,-74.0740713696799,0,,0
94501,761A00,Br. Las Nieves-AK 10 - CL 22,4.6085044815154435,-74.072723795139709,0,,0
94494,810A00,Estación San Diego-AK 10 - CL 23,4.6103863498394162,-74.071901356933211,0,,0
94498,814A00,Estación San Diego-AK 10 - CL 24,4.6112707540806506,-74.071090138867561,0,,0
93807,226A00,U. Pedagógica Nacional-AK 11 - AC 72,4.6578462258660869,-74.058349541144139,0,,0
93808,226B00,U. Pedagógica Nacional-AK 11 - AC 72,4.6579358296807634,-74.058264852164854,0,,0
93801,223A00,C.C. Andino-AK 11 - AC 82,4.6662952861060036,-74.05258984614747,0,,0
93802,223B00,C.C. Andino-AK 11 - AC 82,4.6664347143015155,-74.052493634953464,0,,0
93344,045A00,Br. La Cabrera-AK 11 - AC 82,4.6673897443852548,-74.051854839511421,0,,0
93345,045B00,Br. La Cabrera-AK 11 - AC 85,4.6682196299273748,-74.05130184731965,0,,0
93374,047A00,Clínica del Niño-AK 11 - CL 65,4.6515343122886641,-74.062019641247616,0,,0
93813,229A00,Clínica del Niño-AK 11 - CL 67,4.6530192844727525,-74.061327578717112,0,,0
93814,229B00,Clínica del Niño-AK 11 - CL 67,4.6532561984949607,-74.061232408546928,0,,0
93811,228A00,Br. Quinta Camacho-AK 11 - CL 69,4.654348365835042,-74.060697803946823,0,,0
93812,228B00,Br. Quinta Camacho-AK 11 - CL 69,4.6546731915075847,-74.060519128611446,0,,0
93810,227B00,Clínica de Traumatología y Ortopedia-AK 11 - CL 71,4.6564043570952478,-74.059336687982338,0,,0
93805,225A00,Br. Porciúncula-AK 11 - CL 74,4.6595277161377853,-74.057152387746626,0,,0
93806,225B00,Br. Porciúncula-AK 11 - CL 75,4.6604503046105759,-74.056555043904993,0,,0
93803,224A00,Br. Espartillal-AK 11 - CL 78,4.6630957812176383,-74.054722200608026,0,,0
93804,224B00,Br. Espartillal-AK 11 - CL 79,4.66401539182165,-74.054123825171544,0,,0
93799,222A00,Pquia. La Inmaculada Concepción-AK 11 - CL 87,4.6700209435900755,-74.050046193748159,0,,0
93800,222B00,Pquia. La Inmaculada Concepción-AK 11 - CL 88,4.6712936419627962,-74.049303755340944,0,,0
93798,221B00,Br. Chicó Norte-AK 11 - CL 90,4.6726969964159322,-74.048565890164141,0,,0
93797,221A00,Br. Chicó Norte-AK 11 - CL 90,4.6723449208175838,-74.048752893402437,0,,0
93342,044A00,Embajada de Francia-AK 11 - CL 92,4.67392359360608,-74.047932179089855,0,,0
93343,044B00,Embajada de Francia-AK 11 - CL 93,4.674668505526455,-74.047536818853246,0,,0
93794,219B00,Br. Chicó Norte-AK 11 - CL 94,4.6783533308108689,-74.04566284033092,0,,0
93419,096A00,Br. La Alameda-AK 13 - CL 20,4.60897928763816,-74.074548426334673,0,,0
93420,097A00,Br. La Alameda-AK 13 - CL 23,4.61108195453473,-74.0728017017235,0,,0
94361,894A00,FONADE-AK 13 - CL 26,4.6124502369774216,-74.071689041795779,0,,0
93868,240B00,Edificio Bavaria-AK 13 - CL 27,4.6148261169824822,-74.07065630196044,0,,0
93867,240A00,Edificio Bavaria-AK 13 - CL 27,4.614646715602853,-74.070804273324214,0,,0
93865,239B00,Pq. Central Bavaria-AK 13 - CL 29,4.6167810457222895,-74.06906901955017,0,,0
93864,239A00,Pq. Central Bavaria-AK 13 - CL 29,4.6166371453846109,-74.0691136410217,0,,0
93866,239C00,Pq. Central Bavaria-AK 13 - CL 29,4.6162892368699069,-74.069310041799113,0,,0
93862,238A00,Br. San Martín-AK 13 - CL 31,4.6184853646432069,-74.0687543316797,0,,0
93863,238B00,Br. San Martín-AK 13 - CL 31,4.6187857717791063,-74.068715333864972,0,,0
93710,191A00,FECODE-AK 13 - CL 34,4.6222884807460209,-74.068112818104183,0,,0
93711,191B00,FECODE-AK 13 - CL 34,4.6225839439843615,-74.0680518730389,0,,0
93860,237A00,RCN Radio-AK 13 - CL 38,4.6262727891726767,-74.067442593331236,0,,0
93861,237B00,RCN Radio-AK 13 - CL 38,4.6265909759084822,-74.06740927298361,0,,0
93859,236B00,Br. Sucre-AK 13 - CL 39,4.6282510013564115,-74.067108663981728,0,,0
93858,236A00,Br. Sucre-AK 13 - CL 40,4.6276245429707172,-74.067227866896474,0,,0
93857,235B00,Universidad La Gran Colombia-AK 13 - CL 44,4.6317340452794307,-74.066550594775634,0,,0
93855,234C00,Universidad Piloto-AK 13 - CL 46,4.6339606502466,-74.066166753070917,0,,0
93826,234B00,Universidad Piloto-AK 13 - CL 46,4.6336730907071706,-74.066209332926292,0,,0
93825,234A00,Universidad Piloto-AK 13 - CL 46,4.6334070744481473,-74.0662433769129,0,,0
93718,198A00,Fundación Oftalmológica Nacional-AK 13 - CL 50,4.6373937307334474,-74.065580432185413,0,,0
93720,198C00,Fundación Oftalmológica Nacional-AK 13 - CL 51,4.6386364343707642,-74.065378263963,0,,0
93824,233C00,Tecnoparque SENA-AK 13 - CL 54,4.6420673046001948,-74.064795869000932,0,,0
93823,233B00,Tecnoparque SENA-AK 13 - CL 54,4.641829989846058,-74.064842020816613,0,,0
93822,233A00,Tecnoparque SENA-AK 13 - CL 54,4.641538884025521,-74.064888338366913,0,,0
93421,098A00,Br. Chapinero Central-AK 13 - CL 57,4.6441945319026336,-74.064437509069549,0,,0
93422,098B00,Br. Chapinero Central-AK 13 - CL 58,4.6447379102282422,-74.06436609494628,0,,0
93448,098C00,Br. Chapinero Central-AK 13 - CL 58,4.6450903975836768,-74.064299382464426,0,,0
93821,232C00,Cuerpo Oficial de Bomberos de Bogotá-AK 13 - CL 61,4.6484237199060114,-74.063754215010221,0,,0
93820,232B00,Cuerpo Oficial de Bomberos de Bogotá-AK 13 - CL 61,4.64814371112158,-74.063771799599479,0,,0
93816,230B00,Centro Cosmos 64-AK 13 - CL 64,4.65145696897771,-74.063234212879848,0,,0
93815,230A00,Centro Cosmos 64-AK 13 - CL 64,4.6512130183846931,-74.063275614020469,0,,0
99191,953V00,AK 15 - CL 73 ,4.6605202093428062,-74.060654520441716,0,,0
94088,300A00,U. Sergio Arboleda-AK 15 - CL 75,4.6614881986022514,-74.059907895865152,0,,0
94089,301A00,Br. Porciúncula-AK 15 - CL 76,4.6624136337634976,-74.059292043511149,0,,0
94091,302B00,C.C. Unilago-AK 15 - CL 77,4.6644662267723316,-74.058113526042263,0,,0
94093,303B00,C.C. Atlantis Plaza-AK 15 - CL 79,4.6657719015655008,-74.057394671547812,0,,0
94090,302A00,C.C. Unilago-AK 15 - CL 79,4.6646662033554742,-74.057980205598852,0,,0
94092,303A00,C.C. Atlantis Plaza-AK 15 - CL 80,4.6659782517589194,-74.057268267269947,0,,0
94095,304B00,Clínica del Country-AK 15 - CL 83,4.6689154651913363,-74.055717593127156,0,,0
94097,305B00,C.C. Artelana-AK 15 - CL 85,4.67038407968362,-74.055011688559588,0,,0
94098,306A00,Pq. El Virrey-AK 15 - CL 87,4.6724062718241566,-74.05406625330771,0,,0
94099,306B00,Pq. El Virrey-AK 15 - CL 87,4.6722804426164366,-74.054108543711749,0,,0
94103,308B00,C.C. La Plazuela-AK 15 - CL 90,4.6747512591305869,-74.052874494026426,0,,0
94101,307B00,CADE Chicó-AK 15 - CL 90,4.6736885104018988,-74.053385083095222,0,,0
94100,307A00,CADE Chicó-AK 15 - CL 90,4.6737523121203939,-74.053348082731972,0,,0
94102,308A00,C.C. La Plazuela-AK 15 - CL 91,4.6752119925703894,-74.052643821636636,0,,0
94115,310A00,Cámara de Comercio Sede Norte-AK 15 - CL 93A,4.6773902356657047,-74.0515240409568,0,,0
94118,311B00,Br. Chicó Norte II Sector-AK 15 - CL 95,4.6812862329154008,-74.049485295300869,0,,0
94117,311A00,Br. Chicó Norte II Sector-AK 15 - CL 95,4.6815506103395732,-74.049367551617465,0,,0
94120,312B00,Br. Chicó Norte II Sector-AK 15 - CL 97,4.6822313276136818,-74.049009959466531,0,,0
94119,312A00,Br. Chicó Norte II Sector-AK 15 - CL 97,4.6824258152641631,-74.0488992663783,0,,0
93416,094A00,Centro de Negocios Chicó Plaza-AK 15 - CL 98,4.6836802422425885,-74.048355806431388,0,,0
93417,094B00,Centro de Negocios Chicó Plaza-AK 15 - CL 98,4.6832559239399858,-74.048482922830019,0,,0
94324,467A00,Estación de La Sabana-AK 18 - AC 13,4.60719260995941,-74.0829203578503,0,,0
93327,027A00,Cementerio Central-AK 19 - AC 26,4.6178545217110569,-74.075496094895726,0,,0
93476,121A00, Teusaquillo-AK 19 - AC 32,4.6206695072046484,-74.0742684106927,0,,0
94436,621A00, Parkway-AK 19 - AC 34,4.6243061595417432,-74.073620231179916,0,,0
93328,028A00, Santa Fe-AK 19 - CL 22,4.6155512371839658,-74.080148041317642,0,,0
93721,199A00, Santa Fe-AK 19 - CL 23,4.6163017349336775,-74.077895148355012,0,,0
93525,144A00,Br. Santa Teresita Cl 43-AK 19 - CL 43,4.6320390148872868,-74.072201425037036,0,,0
93526,145A00,Br. Palermo-AK 19 - CL 44,4.633743043369,-74.071715902443742,0,,0
94081,293A00,Br. Chicó Norte III Sector-AK 19 - CL 95,4.6845712356004547,-74.052122040731575,0,,0
94080,292A00,Br. Chicó Norte III Sector-AK 19 - CL 97,4.68442155663047,-74.052432429149633,0,,0
93356,306A01,Calle 148-AK 19 - CL148,4.7308862924050157,-74.045209689503722,0,,0
94275,392A00,C.C. Galerías-AK 24 - AC 53,4.6427859711080934,-74.0737075398984,0,,0
94274,391A00,C.C. Galerías-AK 24 - AC 53,4.6422227755636856,-74.073949138159008,0,,0
94184,340A00, Muequetá-AK 24 - AC 63,4.6517951381318507,-74.072199781552456,0,,0
94180,336A00, Los Alcázares-AK 24 - AC 68,4.6597499108456271,-74.069280455288677,0,,0
94280,399A00,Br. Colombia-AK 24 - AC 72,4.6617359762020332,-74.06781800004056,0,,0
94179,335A00,Br. Alcázares Norte-AK 24 - AC 72,4.66364905131885,-74.066813743303811,0,,0
93601,163A00,Br. La Soledad CL 39-AK 24 - CL 37,4.6272561842145095,-74.075542281005312,0,,0
93603,166A00,CAI La Soledad-AK 24 - CL 40,4.6305526824552761,-74.074848435851237,0,,0
93602,165A00,Br. La Soledad-AK 24 - CL 40,4.6311393303728874,-74.075227539237858,0,,0
93599,161A00,Br. La Soledad-AK 24 - CL 42,4.6331109828684784,-74.074987435428469,0,,0
93548,160A00,IED Palermo-AK 24 - CL 49,4.6380211396167619,-74.074516168216832,0,,0
93324,024A00,IED Palermo-AK 24 - CL 49,4.6381958606072944,-74.074623231248566,0,,0
94249,362A00,C.C. Galerías CL 52-AK 24 - CL 52,4.6411536829162587,-74.074131733191336,0,,0
93321,021A00,Pl. 7 de Agosto-AK 24 - CL 66,4.65694474284569,-74.070863881762776,0,,0
93300,020A00, Siete de Agosto-AK 24 - CL 66,4.6579548676899245,-74.070403069876463,0,,0
93471,117A00,C.C. Las Rampas-AK 24 - CL 67,4.6585801975366037,-74.069780137714659,0,,0
94276,393A00,CAI Alcázares-AK 24 - CL 71,4.66185622718292,-74.067957993272785,0,,0
94176,331A00,Br. Juan XXIII-AK 24 - CL 77,4.6671572361584781,-74.064524040628655,0,,0
93472,118A00,Br. Juan XXIII-AK 24 - CL 77,4.6678102361264333,-74.063846040641934,0,,0
94419,591A00,Br. Polo Club-AK 24 - CL 82,4.6708122146691089,-74.063065060804831,0,,0
94416,590A00,Br. Polo Club-AK 24 - CL 83,4.6718179967432221,-74.063155639055012,0,,0
94129,321B00,Estación Ricaurte-AK 27 - AC 13,4.6128199890815429,-74.088752537308579,0,,0
94128,321A00,Estación Ricaurte-AK 27 - AC 13,4.61247753942364,-74.089055561944761,0,,0
94433,615A00,Pl. Paloquemao-AK 27 - AC 19,4.6165422983553794,-74.085273989111855,0,,0
93607,171A00,Br. Paloquemao-AK 27 - AC 19,4.61551875262012,-74.086152495730047,0,,0
94131,322B00,Br. Ricaurte-AK 27 - CL 10,4.6088692689204409,-74.091970960298184,0,,0
93375,048A00,Br. Santa Isabel-AK 27 - CL 1A,4.5958572380395495,-74.10222104084859,0,,0
93290,011A00,CAI Santa Isabel-AK 27 - CL 1G,4.5992468341589507,-74.099585286886267,0,,0
93291,011B00,CAI Santa Isabel-AK 27 - CL 1G,4.5996032087587588,-74.099320172361871,0,,0
94434,616A00,Br. Samper Mendoza-AK 27 - CL 23,4.6211052637514847,-74.081476863339716,0,,0
94133,323B00,Br. Veraguas-AK 27 - CL 4A,4.6023178807459342,-74.097169206700372,0,,0
94130,322A00,Br. Ricaurte-AK 27 - CL 9,4.60864356562248,-74.092143524248939,0,,0
93033,329A07,Industrial Centenario-AK 36 - CL 38,4.6193468952413168,-74.096216628051081,0,,0
88928,137A06,Batallón Caldas-AK 50 - AC 17,4.63030097404761,-74.10487219472563,0,,0
88623,003A06,Fiscalía General de la Nación-AK 50 - AC 24,4.6372874083725826,-74.098140852607145,0,,0
88004,006A05,Avenida El Dorado-AK 50 - AC 26,4.6413697135305654,-74.091690569887987,0,,0
88003,005A05,Estación Gobernación-AK 50 - AC 26,4.64192837889693,-74.091327483010133,0,,0
88814,086A06,Batallón Caldas-AK 50 - CL 15,4.6293220900163305,-74.105365746797261,0,,0
88625,005A06,Batallón Caldas-AK 50 - CL 19,4.6340012709581879,-74.102006843596712,0,,0
88626,006A06,Batallón Caldas-AK 50 - CL 19,4.6334858185643588,-74.102140472279686,0,,0
89535,012A08,Salón Comunal el Jazmín-AK 50 - CL 1D,4.6101679755706977,-74.116927455573645,0,,0
89534,011A08,IED Luis Carlos Galán-AK 50 - CL 1G,4.6112507049472651,-74.116585893787288,0,,0
88958,138A06,C.C. Ciprés Plaza-AK 50 - CL 21,4.6360613892025171,-74.100305135733791,0,,0
89532,009A08,Pq. Girasol-AK 50 - CL 2C,4.6139996207205387,-74.1152160173062,0,,0
89533,010A08,Pq. Girasol-AK 50 - CL 2D,4.6138596010677047,-74.115020646938817,0,,0
88002,004A05,Pq. La Esmeralda-AK 50 - CL 45,4.6453496644652823,-74.08700506938,0,,0
92380,006A07,Br. Brasilia-AK 50 - CL 4C,4.618583903937699,-74.112919131029429,0,,0
92379,005A07,IED Sorrento-AK 50 - CL 4F,4.6188572380881343,-74.112980039726821,0,,0
88000,002A05,Br. Nicolás de Federmann-AK 50 - CL 59,4.6508730149342412,-74.084488995474445,0,,0
87999,001A05,Br. Pablo VI Norte-AK 50 - CL 59,4.6518987276083807,-74.0843586648393,0,,0
88509,197A05,Br. Nicolás de Federmán-AK 50 - CL 62,4.6517863577536653,-74.084130815725715,0,,0
94283,401A00,Br. La Castellana-AK 50 - CL 91,4.6807242377455758,-74.064375066267033,0,,0
92569,087A07,Br. San Francisco-AK 50 - TV 46,4.6213724323954173,-74.1108008504299,0,,0
92377,003A07,Br. San Francisco-AK 50 - TV 48,4.6239871174859122,-74.1091532954845,0,,0
92375,001A07,Br. San Francisco-AK 50 - TV 49,4.6254629984917175,-74.107987332719219,0,,0
88094,049A05,Pq. Distrital Salitre-AK 60 - AC 63,4.66151531144195,-74.087397610274536,0,,0
88510,198A05,Museo de los Niños-AK 60 - AC 63,4.66160299968867,-74.087865388063435,0,,0
88934,433A05,Br. Popular Modelo-AK 60 - AC 64,4.667000348256833,-74.084694840046566,0,,0
88935,434A05,Aldeas Infantiles SOS Colombia-AK 60 - AC 64,4.6682004663037873,-74.084322429689777,0,,0
88512,200A05,Pq. Deportivo Salitre-AK 60 - AC 64,4.665828485170989,-74.085796299816309,0,,0
88360,146A05,Bibl. Virgilio Barco-AK 60 - CL 57,4.6571314875959153,-74.089376322298122,0,,0
88362,148A05,Parque Simón Bolívar-AK 60 - CL 60,4.6539705302768626,-74.090776794969273,0,,0
88361,147A05,Bibl. Virgilio Barco-AK 60 - CL 61,4.6570517989392313,-74.0899308821842,0,,0
88887,126A06,AC 17-AK 68 - AC 13,4.6392995545983684,-74.115928856467789,0,,0
88889,126C06,AC 17-AK 68 - AC 13,4.6386041059743519,-74.116667493949478,0,,0
88616,001B06,Avenida Calle 13-AK 68 - AC 13,4.6382983306283974,-74.117489781642774,0,,0
88618,001D06,Avenida Calle 13-AK 68 - AC 13,4.6387984435635827,-74.116976772429339,0,,0
88617,001C06,Avenida Calle 13-AK 68 - AC 13,4.6386065733265385,-74.117193899944127,0,,0
88890,126D06,AC 17-AK 68 - AC 13,4.6383321987725186,-74.116953232566232,0,,0
88615,001A06,Avenida Calle 13-AK 68 - AC 13,4.6380822283767564,-74.117698676107267,0,,0
88888,126B06,Avenida Calle 17-AK 68 - AC 13,4.6390581123228856,-74.116169642288554,0,,0
88893,127C06,Centro Industrial-AK 68 - AC 17,4.64163837464277,-74.1136167106436,0,,0
88894,127D06,Br. Centro Industrial-AK 68 - AC 17,4.6413765449580833,-74.113884468239718,0,,0
88892,127B06,Br. Centro Industrial-AK 68 - AC 17,4.6419359068929245,-74.113310955757186,0,,0
88910,131A06,Banco de la Republica Central de Efectivo-AK 68 - AC 26,4.6517497638032088,-74.104569087014212,0,,0
88916,132C06,Banco de la República Central de Efectivo-AK 68 - AC 26,4.6519012172097787,-74.104936978934816,0,,0
88917,132D06,Banco de la República Central de Efectivo-AK 68 - AC 26,4.6521661420484364,-74.104763052532363,0,,0
88915,132B06,Banco de la República Central de Efectivo-AK 68 - AC 26,4.6518020780790241,-74.105008175573133,0,,0
88914,132A06,Bco. de la República Central de Efectivo-AK 68 - AC 26,4.6515424930590079,-74.105178356283673,0,,0
88911,131B06,Banco de la República Central de Efectivo-AK 68 - AC 26,4.6515296998045983,-74.1047188993681,0,,0
88913,131D06,Banco de la República Central de Efectivo-AK 68 - AC 26,4.6510897268583218,-74.105024081977348,0,,0
88193,115C05,AV. CL 26-AK 68 - AC 26,4.655883497665382,-74.101778449443188,0,,0
88912,131C06,Banco de la República Central de Efectivo-AK 68 - AC 26,4.65133392035318,-74.104837984829615,0,,0
88237,121C05,Pq. El Salitre-AK 68 - AC 63,4.6686240381233119,-74.091423673904785,0,,0
88262,122D05,Pq. Aquapark-AK 68 - AC 63,4.6708795518286284,-74.089690372313115,0,,0
88939,437B05,Pq. Metropolitano Simón Bolívar-AK 68 - AC 63,4.66366274177536,-74.095269957256349,0,,0
88232,120B05,Colegio Cafam-AK 68 - AC 63,4.6689560294029464,-74.091631422253144,0,,0
88235,121A05,Pq. El Salitre-AK 68 - AC 63,4.6689978237569321,-74.091153893121,0,,0
88228,119B05,Coliseo El Salitre-AK 68 - AC 63,4.6630842471422893,-74.096163307909762,0,,0
88227,119A05,Coliseo El Salitre-AK 68 - AC 63,4.6628366885383645,-74.096344388395821,0,,0
88938,437A05,Pq. Metropolitano Simón Bolívar-AK 68 - AC 63,4.6639397756946925,-74.095050830496916,0,,0
88236,121B05,Pq. El Salitre-AK 68 - AC 63,4.6688763769681572,-74.091248353449174,0,,0
88238,121D05,Pq. El Salitre-AK 68 - AC 63,4.6681279917735763,-74.091827263081754,0,,0
88231,120A05,Colegio Cafam-AK 68 - AC 63,4.6686242643299929,-74.091884154187767,0,,0
88264,123B05,Cruz Roja-AK 68 - AC 66,4.6724571011235669,-74.0890786902407,0,,0
88260,122B05,Pq. Aquapark-AK 68 - AC 66,4.671206212685993,-74.089478754571161,0,,0
88263,123A05,Cruz Roja-AK 68 - AC 66,4.6722500756319061,-74.089209027653638,0,,0
88261,122C05,Pq. Aquapark-AK 68 - AC 66,4.67097464995525,-74.089621908145759,0,,0
86867,102A04,Pq. Metrópolis-AK 68 - AC 72,4.679333586903744,-74.084895893459077,0,,0
86868,102B04,Pq. Metrópolis-AK 68 - AC 72,4.6795256653693018,-74.084712718307841,0,,0
86897,105B04,Éxito Calle 80-AK 68 - AC 80,4.6833399294400637,-74.080030618302331,0,,0
86896,105A04,Éxito Calle 80-AK 68 - AC 80,4.683143380609514,-74.08026124633173,0,,0
92536,072C07,Br. Lusitania-AK 68 - CL 10,4.63415466286219,-74.120454359062151,0,,0
92630,101B07,Colegio Nicolás Esguerra-AK 68 - CL 10,4.6326414867295052,-74.120684736991763,0,,0
92537,072D07,Br. Lusitania-AK 68 - CL 11,4.6347071497408772,-74.120205839816464,0,,0
92534,072A07,Br. Lusitania-AK 68 - CL 11,4.6334889738170855,-74.120721367589425,0,,0
92535,072B07,Br. Lusitania-AK 68 - CL 11,4.6338906658076722,-74.120553994643885,0,,0
88619,002A06,Br. Granjas de Techo-AK 68 - CL 18,4.6410922838279589,-74.1146826086804,0,,0
88621,002C06,Granjas de Techo-AK 68 - CL 18,4.6416654715118062,-74.1140860307214,0,,0
88622,002D06,Br. Granjas de Techo-AK 68 - CL 18,4.641870663612373,-74.113873043453268,0,,0
88620,002B06,Br. Granjas de Techo-AK 68 - CL 18,4.6413796446524564,-74.1143981115031,0,,0
88891,127A06,Br. Centro Industrial-AK 68 - CL 19,4.6421912349907188,-74.113035426805183,0,,0
88775,068C06,Centro Industrial-AK 68 - CL 19,4.6435342167271507,-74.111791756951447,0,,0
88776,068D06,Br. Centro Industrial-AK 68 - CL 19,4.64311648681167,-74.112174000280291,0,,0
92627,100C07,Avenida Calle 3-AK 68 - CL 1A,4.62267747786175,-74.124590075355385,0,,0
88774,068B06,Br. Centro Industrial-AK 68 - CL 20,4.643957113557283,-74.111294722108312,0,,0
89086,190D06,Br. Montevideo-AK 68 - CL 20,4.6448489365390682,-74.11093492081126,0,,0
89083,190A06,Br. Montevideo-AK 68 - CL 20,4.6433158701492356,-74.112430194662139,0,,0
89084,190B06,Br. Montevideo-AK 68 - CL 20,4.643662732500113,-74.112067260198145,0,,0
89085,190C06,Montevideo-AK 68 - CL 20,4.6446493017255923,-74.111128155839836,0,,0
88901,129C06,Zona Ind. Sredni-AK 68 - CL 22,4.6465329246027842,-74.109184196644989,0,,0
88198,116D05,Br. Salitre Greco-AK 68 - CL 44,4.6556188659624764,-74.101480211765832,0,,0
88191,115A05,AC 26-AK 68 - CL 44,4.65533680137093,-74.102290043633346,0,,0
88192,115B05,Avenida Calle 26-AK 68 - CL 44,4.6556185117253621,-74.102048729314475,0,,0
88196,116B05,Br. Salitre - El Greco-AK 68 - CL 45,4.6561793136001235,-74.1010457429982,0,,0
88197,116C05,Salitre Greco-AK 68 - CL 45,4.6559155765925677,-74.101277428775973,0,,0
88194,115D05,Avenida Calle 26-AK 68 - CL 46,4.6565108973908407,-74.10125491715506,0,,0
88195,116A05,Br. Salitre Greco-AK 68 - CL 46,4.6565344279589773,-74.100798473661115,0,,0
88219,117A05,Compensar-AK 68 - CL 49,4.659494569978011,-74.09901346757691,0,,0
88222,117D05,Compensar-AK 68 - CL 49,4.6598599933237939,-74.098721485221333,0,,0
92624,099D07,AV. Américas-AK 68 - CL 4D,4.6269999984632015,-74.12298640945788,0,,0
92623,099C07,AV. Américas-AK 68 - CL 4D,4.6273356425501291,-74.122857615683841,0,,0
92621,099A07,AV. Américas-AK 68 - CL 4G,4.6280712008687468,-74.122587981206578,0,,0
92614,097B07,Avenida Américas-AK 68 - CL 4G,4.62747912588237,-74.123194690746317,0,,0
92613,097A07,Avenida Américas-AK 68 - CL 4G,4.6271869443173506,-74.123302414622557,0,,0
88223,118A05,Pq. Metropolitano Simón Bolívar-AK 68 - CL 51,4.6617328446955542,-74.096757399956857,0,,0
88224,118B05,Pq. Metropolitano Simón Bolívar-AK 68 - CL 51,4.6615185020730845,-74.0969298621301,0,,0
88230,119D05,Coliseo El Salitre-AK 68 - CL 52,4.6636514868661552,-74.095747886164929,0,,0
88554,210D05,Pq. Metropolitano Simón Bolívar-AK 68 - CL 52,4.662199161647159,-74.096906690725433,0,,0
88941,437D05,Pq. Metropolitano Simón Bolívar-AK 68 - CL 53,4.663155589017042,-74.095692124559676,0,,0
88225,118C05,Pq. Metropolitano Simón Bolívar-AK 68 - CL 53,4.6612841250744417,-74.097120911317973,0,,0
88940,437C05,Pq. Metropolitano Simón Bolívar-AK 68 - CL 53,4.66339971946043,-74.095483607852628,0,,0
88226,118D05,Pq. Metropolitano Simón Bolívar-AK 68 - CL 53,4.6610631042622792,-74.09727852601327,0,,0
88229,119C05,Coliseo El Salitre-AK 68 - CL 57,4.6633670135175578,-74.095964183163517,0,,0
88553,210C05,Pq. Metropolitano Simón Bolívar-AK 68 - CL 57,4.6619808431277061,-74.097076111349878,0,,0
88259,122A05,Pq. Aquapark-AK 68 - CL 64,4.6721272195954793,-74.088848241566865,0,,0
86662,015B04,Pq. Metrópolis-AK 68 - CL 73,4.6786690874696459,-74.085007991328283,0,,0
86618,001C04,AC 80-AK 68 - CL 78,4.6821568331282855,-74.080914862410154,0,,0
86898,105C04,Éxito Calle 80-AK 68 - CL 78,4.68352484417213,-74.079794752240332,0,,0
90805,210C03,Cafam Floresta-AK 68 - CL 90,4.6883740072412223,-74.073084666107789,0,,0
90800,209A03,Br. Entreríos-AK 68 - CL 90,4.6859483552040384,-74.07617314749703,0,,0
90802,209C03,Entreríos-AK 68 - CL 90,4.6855075091121146,-74.07673675020412,0,,0
90801,209B03,Br. Entreríos-AK 68 - CL 90,4.6858015079189759,-74.0763875111188,0,,0
90738,175C03,Cafam Floresta-AK 68 - CL 95,4.6871349862382283,-74.075329112243409,0,,0
90737,175B03,Cafam Floresta-AK 68 - CL 95,4.6870422746338605,-74.0754584992345,0,,0
90736,175A03,Cafam Floresta-AK 68 - CL 95,4.6867444446230264,-74.075818596227691,0,,0
90804,210B03,Cafam Floresta-AK 68 - CL 95,4.6884867722588544,-74.072902410216685,0,,0
90803,210A03,Cafam Floresta-AK 68 - CL 98,4.6886316977005729,-74.072605415356577,0,,0
92652,101D07,Colegio Nicolás Esguerra-AK 68 - CL 9A,4.6318755010806072,-74.1209940060687,0,,0
92631,101C07,Colegio Nicolás Esguerra-AK 68 - CL 9A,4.6320159011924389,-74.12094018782696,0,,0
92611,096C07,Colegio Nicolás Esguerra-AK 68 - CL 9C,4.6319894293994643,-74.121324850585168,0,,0
92612,096D07,Colegio Nicolás Esguerra-AK 68 - CL 9C,4.6323705337541243,-74.121162887342834,0,,0
92963,163B01,Escuela de Caballería-AK 7 - AC 100,4.6799750024153113,-74.037867538348635,0,,0
92962,163A01,Escuela de Caballería-AK 7 - AC 100,4.6800903569384413,-74.037790452660545,0,,0
92974,169A01,Fundación Sagrado Corazón-AK 7 - AC 116,4.6944425943827879,-74.032682883091155,0,,0
93226,252A01,Br. San Gabriel Norte-AK 7 - AC 127,4.703376618127983,-74.028520210097355,0,,0
93227,252B01,Br. San Gabriel Norte-AK 7 - AC 127,4.7032015432810557,-74.028517203817714,0,,0
93166,245A01,Br. Ginebra-AK 7 - AC 134,4.71207055675803,-74.029416791930032,0,,0
93153,238A01,C.C. Show Place-AK 7 - AC 147,4.7231702431115794,-74.026197160363523,0,,0
92683,045A01,SENA Usaquén-AK 7 - AC 153,4.7282810088463219,-74.024538445117443,0,,0
94065,228B01,Br. San Juan Bosco-AK 7 - AC 170,4.7476679780930455,-74.022728699796943,0,,0
94199,227A01,Clínica San Juan Bosco-AK 7 - AC 170,4.7477969521434087,-74.023080044563486,0,,0
93705,577A01,Subestación Eléctrica Torca-AK 7 - AC 201,4.7769322412544284,-74.025984986775683,0,,0
93758,587A01,Subestación Eléctrica Torca-AK 7 - AC 201,4.7774253284682242,-74.026100289825862,0,,0
92964,164A01,IED General Santander (Br. El Pedregal)-AK 7 - CL 101,4.6818932352016631,-74.037255041497147,0,,0
92965,164B01,Br. El Pedregal-AK 7 - CL 102,4.6821192351943317,-74.037107041495247,0,,0
92825,113A01,Cantón Norte-AK 7 - CL 104,4.6833887457229144,-74.036241641131227,0,,0
92966,165A01,Escuela de Caballería-AK 7 - CL 106,4.6840977970677375,-74.036300013714126,0,,0
92967,165B01,Escuela de Caballería-AK 7 - CL 106,4.68473746115972,-74.0359962596916,0,,0
92969,166B01,Escuela de Caballería-AK 7 - CL 106,4.6860466823405975,-74.035114154189728,0,,0
92970,167A01,Br. Santa Ana Occidental-AK 7 - CL 110,4.6889256822162286,-74.034977263266569,0,,0
92971,167B01,Br. Santa Ana Occidental-AK 7 - CL 110,4.689033540642197,-74.034950988010451,0,,0
92692,049B01,Br. Santa Ana-AK 7 - CL 110,4.6889599001196274,-74.034493553950639,0,,0
92972,168A01,C.C. Hacienda Santa Bárbara-AK 7 - CL 113,4.6919139136471184,-74.033933924709416,0,,0
92690,048B01,C.C. Hacienda Santa Bárbara-AK 7 - CL 113,4.6920593723002675,-74.033505499857711,0,,0
92689,048A01,C.C. Hacienda Santa Bárbara-AK 7 - CL 114,4.6925599180696507,-74.0333574601402,0,,0
92973,168B01,C.C. Hacienda Santa Bárbara-AK 7 - CL 114,4.6920771424374408,-74.033880323720538,0,,0
94540,170A01,Asociación Médica de Los Andes (Fundación Santa Fe de Bogotá)-AK 7 - CL 117,4.6948318259290875,-74.032808163767868,0,,0
92977,170B01,Fundación Santa Fe de Bogotá-AK 7 - CL 117,4.6949783069672373,-74.032712527464085,0,,0
93008,171B01,Alcaldía de Usaquén-AK 7 - CL 118,4.6954175512536862,-74.032096243912449,0,,0
93007,171A01,Alcaldía de Usaquén-AK 7 - CL 119,4.6961153490446765,-74.031642367485887,0,,0
92870,123B01,Instituto Carlos Ardila Lülle-AK 7 - CL 120,4.69705972837822,-74.031394595553124,0,,0
93010,172B01,C.C. Paseo Real-AK 7 - CL 121,4.6982417797438929,-74.029778467198341,0,,0
93009,172A01,C.C. Paseo Real-AK 7 - CL 121,4.6983389828665452,-74.029633385589051,0,,0
93012,173B01,Br. Santa Bárbara Oriental-AK 7 - CL 123,4.6985783408672583,-74.02977306175498,0,,0
93011,173A01,Br. Santa Bárbara Oriental-AK 7 - CL 123,4.6981668829565884,-74.030388432431948,0,,0
93013,174A01,Br. Santa Bárbara Oriental-AK 7 - CL 124,4.7004307222455077,-74.028833616718586,0,,0
93014,174B01,Br. Santa Bárbara Oriental-AK 7 - CL 124,4.7002342347465795,-74.028885041387923,0,,0
93016,175B01,Br. San Gabriel Norte II-AK 7 - CL 126,4.7006185508230365,-74.028530866541757,0,,0
93015,175A01,Br. San Gabriel Norte II-AK 7 - CL 126,4.7010836035305745,-74.028435470459939,0,,0
93216,247A01,Br. Bella Suiza-AK 7 - CL 129,4.7087562159008174,-74.0287611847229,0,,0
93218,248A01,Br. Ginebra-AK 7 - CL 130,4.7095211829768582,-74.028470926286758,0,,0
93217,247B01,Br. Bella Suiza-AK 7 - CL 130,4.708873722808935,-74.028776399144775,0,,0
93167,246A01,Br. Bosques de Medina-AK 7 - CL 132,4.7111376006742409,-74.028830015105328,0,,0
93168,246B01,Br. Bosques de Medina-AK 7 - CL 132,4.7113614927844827,-74.028889944782108,0,,0
93164,244A01,Br. Segundo Contador-AK 7 - CL 135,4.7133580228597873,-74.029327994774917,0,,0
93165,244B01,Br. Segundo Contador-AK 7 - CL 135,4.7136530226738431,-74.029247457705054,0,,0
92688,047B01,Br. Segundo Contador-AK 7 - CL 135,4.7134690102627053,-74.028990921127217,0,,0
92687,047A01,Br. Segundo Contador-AK 7 - CL 135,4.7137922345864789,-74.028896041017219,0,,0
93163,243B01,C.C. Palatino-AK 7 - CL 138,4.7149161765515348,-74.028598893753752,0,,0
93240,264B01,C.C. Palatino-AK 7 - CL 140,4.7167254526646269,-74.02892625015204,0,,0
93239,264A01,C.C. Palatino-AK 7 - CL 140,4.715438322501587,-74.028868626628451,0,,0
93162,243A01,C.C. Palatino-AK 7 - CL 140,4.7157820824242,-74.02857600842151,0,,0
93160,241B01,Br. Bosque de Pinos I-AK 7 - CL 144,4.7197209495153594,-74.027147813140559,0,,0
93157,240A01,Br. Cedro Narváez-AK 7 - CL 144,4.7190577224970278,-74.027769392290764,0,,0
93158,240B01,Br. Cedro Narváez-AK 7 - CL 144,4.7184582345134949,-74.02812104092267,0,,0
93159,241A01,Br. Bosque de Pinos I-AK 7 - CL 145,4.7201089912160423,-74.0269102470696,0,,0
93156,239B01,Colegio Pureza de María-AK 7 - CL 146,4.721597984627488,-74.026026568197452,0,,0
93154,238B01,C.C. Show Place-AK 7 - CL 147,4.7221387195049545,-74.026305778604979,0,,0
93155,239A01,Colegio Pureza de María-AK 7 - CL 147,4.7219642913325588,-74.0260010422931,0,,0
93151,237A01,Colegio Grecolatino (Br. Bosque de Pinos III)-AK 7 - CL 148,4.72470394475865,-74.025005504962422,0,,0
93152,237B01,Br. Bosque de Pinos III-AK 7 - CL 148,4.7244682301951935,-74.025202889552787,0,,0
92791,070B01,Museo Francisco de Paula Santander-AK 7 - CL 150,4.7255022359242247,-74.025014155089735,0,,0
92790,070A01,Museo Francisco de Paula Santander-AK 7 - CL 150,4.7250496323644917,-74.025255637212751,0,,0
93907,660A01,Br. Cedro Salazar-AK 7 - CL 152,4.7267701035229663,-74.024627024278217,0,,0
93910,660B01,Br. Cedro Salazar-AK 7 - CL 152,4.726492227785017,-74.024657026695564,0,,0
92684,045B01,Br. Barrancas-AK 7 - CL 153,4.7290806818739144,-74.024250645095762,0,,0
93149,236A01,IED Agustín Fernández-AK 7 - CL 155,4.72895774102994,-74.023993473860187,0,,0
93147,235A01,Br. Barrancas Norte-AK 7 - CL 156,4.7323746349336142,-74.024107103495538,0,,0
93145,234A01,Br. Bosque de Pinos III-AK 7 - CL 156,4.73239308789585,-74.023800384730464,0,,0
93146,234B01,Centro de Negocios North Point-AK 7 - CL 156,4.732693234224679,-74.023862040734812,0,,0
93148,235B01,Br. Barrancas Norte-AK 7 - CL 156,4.7326087072661664,-74.024154400970616,0,,0
92685,046A01,Br. Ibiza-AK 7 - CL 160,4.7349525582825853,-74.024168924699524,0,,0
94060,231A01,IED Divino Maestro-AK 7 - CL 163,4.7379497928011531,-74.0229131475313,0,,0
94067,229B01,Br. Servitá-AK 7 - CL 165,4.7418405710969305,-74.0224427373274,0,,0
94068,230A01,Br. Servitá-AK 7 - CL 165,4.74147223406743,-74.02213704057138,0,,0
94069,230B01,Br. Servitá-AK 7 - CL 165,4.7413552340672025,-74.022124040572493,0,,0
94066,229A01,Br. Servitá-AK 7 - CL 165,4.7414288790428074,-74.022472551627018,0,,0
92679,043A01,IED Cristóbal Colón (Colegio María Inmaculada)-AK 7 - CL 166,4.7445531210239951,-74.0221353580932,0,,0
92681,044A01,CUN Sede Norte-AK 7 - CL 166,4.7434315877620419,-74.022427721656229,0,,0
92682,044B01,CUN Sede Norte-AK 7 - CL 166,4.7437460588309692,-74.022409642949071,0,,0
93423,320A01,Br. El Redil-AK 7 - CL 173,4.7520884740001845,-74.024362475427765,0,,0
93426,321B01,Br. El Redil-AK 7 - CL 173,4.752232295487258,-74.024141667815471,0,,0
93425,321A01,Br. El Redil-AK 7 - CL 174,4.7533019750779637,-74.0242252288997,0,,0
93424,320B01,Br. El Redil-AK 7 - CL 174,4.7524005555478439,-74.024369944896023,0,,0
93057,190B01,Universidad de La Salle Sede Floresta-AK 7 - CL 175,4.7547328981528949,-74.024622129828771,0,,0
93368,316B01,Colegio Claustro Moderno-AK 7 - CL 175,4.7545951920869509,-74.024311736334553,0,,0
93031,190A01,Universidad de La Salle Sede Floresta-AK 7 - CL 175,4.7544212488470912,-74.0245904864097,0,,0
93367,316A01,Colegio Claustro Moderno-AK 7 - CL 178,4.7549642617061734,-74.024344082603633,0,,0
92779,061B01,Codabas-AK 7 - CL 180,4.7567030908204071,-74.024684712770323,0,,0
92777,060B01,Centro de Abastos del Norte-AK 7 - CL 181,4.7572866097782862,-74.025246509240219,0,,0
92776,060A01,Centro de Abastos del Norte-AK 7 - CL 181,4.7570418739797411,-74.0251385120776,0,,0
92782,063A01,Br. Horizontes Norte-AK 7 - CL 182,4.7589408304240317,-74.025819883112078,0,,0
92780,062A01,IED Friedrich Naumann-AK 7 - CL 182,4.7583677184290432,-74.025763877772974,0,,0
92781,062B01,IED Friedrich Naumann-AK 7 - CL 182,4.7586219199794524,-74.0258796646562,0,,0
92785,065A01,Horizontes Usaquén-AK 7 - CL 186,4.7621968106005452,-74.026999604309438,0,,0
92784,064A01,Gimnasio Las Palmas-AK 7 - CL 186,4.7630580875909123,-74.027430288148125,0,,0
92786,066A01,Br. Tibabita-AK 7 - CL 189,4.7658467040929189,-74.027567677679841,0,,0
92788,068A01,Colegio Ruíz de Alarcón-AK 7 - CL 191,4.767842028608853,-74.027694760003158,0,,0
92789,069A01,Colegio Ruíz de Alarcón-AK 7 - CL 191,4.7682615292457626,-74.027539255068262,0,,0
93886,652A01,Br. Tibabita Rural-AK 7 - CL 195,4.7730828332711219,-74.026779357389046,0,,0
93704,576A01,Acerías Paz del Río-AK 7 - CL 196,4.7729224664887271,-74.026728643656455,0,,0
93706,578A01,Br. Tibabita Rural-AK 7 - CL 207,4.7852347211354571,-74.027981012246343,0,,0
93885,651A01,Br. El Rosario Norte-AK 7 - CL 209,4.78505187801166,-74.0281659811666,0,,0
93903,658A01,Br. Tibabita Rural-AK 7 - CL 209,4.7868948094515318,-74.028018753935967,0,,0
93905,659A01,Br. Torca I-AK 7 - CL 210,4.7892508147968043,-74.0281609028049,0,,0
93757,586A01,Br. Tibabita Rural-AK 7 - CL 210,4.7873287723236171,-74.02824001052366,0,,0
93883,650A01,Colegio del Rosario Campestre-AK 7 - CL 212,4.7907066518942614,-74.028473508438111,0,,0
93707,579A01,Mansión Donoso-AK 7 - CL 215,4.7942511606694334,-74.030603534453121,0,,0
93756,585A01,Escuela Ecuestre-AK 7 - CL 215,4.7940325967959438,-74.030580583344346,0,,0
93434,332A01,Compensar Calle 220-AK 7 - CL 220,4.7988783314497425,-74.03062363734827,0,,0
93639,503A01,Compensar Calle 220-AK 7 - CL 220,4.7984048173282625,-74.030807293741034,0,,0
93882,649A01,Br. Torca I-AK 7 - CL 224,4.8027647833470013,-74.030186262979669,0,,0
93708,580A01,Hacienda Las Pilas-AK 7 - CL 225,4.8028745195117883,-74.030076217963526,0,,0
93752,581A01,Br. Torca II-AK 7 - CL 234,4.8082468221757226,-74.03006717942695,0,,0
93755,584A01,Br. Torca II-AK 7 - CL 234,4.8067019104180959,-74.029902730626588,0,,0
93637,500A01,Floresta de la Sabana-AK 7 - CL 237,4.810992702576069,-74.0306495275513,0,,0
93636,499A01,Floresta de la Sabana-AK 7 - CL 237,4.8114524119260151,-74.030829462271285,0,,0
93754,583A01,Torca Rural I-AK 7 - CL 245,4.8181283802597941,-74.030991980228151,0,,0
